id,name,latitude,longitude
1,"Jackson & Austin Terminal",41.876199675261,-87.774002552032
2,"5900 W Jackson",41.877154302508,-87.771331071854
3,"Jackson & Menard",41.877034475603,-87.769770026207
4,"5700 W Jackson",41.877086400623,-87.7674472332
6,"Jackson & Lotus",41.876555165735,-87.761412262917
7,"5351 W Jackson",41.876587119838,-87.759336233139
8,"Jackson & Lockwood",41.876623068185,-87.757281661034
9,"Jackson & Laramie",41.876651027996,-87.754631638527
10,"Jackson & Leamington",41.876667005025,-87.753167152405
11,"5047 W Jackson",41.876694964818,-87.751278877258
12,"Jackson & Lavergne",41.876730913104,-87.748939990997
13,"4849 W Jackson",41.876754878617,-87.747040987015
14,"Jackson & Cicero",41.876790826869,-87.74482011795
15,"Jackson & Kilpatrick",41.876858729069,-87.742481231689
16,"Jackson & Kenton",41.876902665747,-87.740619778633
17,"Jackson & Kolmar",41.876918642714,-87.739208936691
18,"Jackson & Kilbourn",41.876934619677,-87.737572789192
19,"Jackson & Kostner",41.876954590874,-87.735051512718
20,"Jackson & Kildare",41.876982550541,-87.732605338097
21,"Jackson & Keeler",41.8770224929,-87.730169892311
22,"Jackson & Karlov",41.877046458303,-87.727707624435
23,"Jackson & Pulaski",41.877066429466,-87.725175619125
24,"Jackson & Springfield",41.877110366002,-87.722788453102
25,"Jackson & Hamlin",41.877134331373,-87.720857262611
26,"Jackson & Central Park",41.877202233207,-87.715492844582
27,"Jackson & St. Louis",41.877218210099,-87.713234424591
29,"Jackson & Spaulding",41.877278123408,-87.708224058151
30,"Jackson & Kedzie",41.877298094498,-87.70583152771
31,"Jackson & Albany",41.877322059798,-87.703320980072
32,"Jackson & Sacramento",41.877362001945,-87.70082116127
33,"Jackson & Francisco",41.877393955645,-87.698391079903
34,"Jackson & California",41.877409932489,-87.695939540863
35,"Jackson & Washtenaw",41.877437891956,-87.693589925766
36,"2609 W Jackson",41.877457862996,-87.691696286201
38,"Jackson & Western",41.87752975869,-87.686144113541
39,"Jackson & Oakley",41.877553723903,-87.683601379395
40,"Jackson & Leavitt",41.877577689108,-87.681600451469
41,"Jackson & Hoyne",41.877445880373,-87.678762674332
42,"Jackson & Damen",41.877465851411,-87.676713466644
44,"Damen & Congress",41.875137186327,-87.676579356194
48,"Harrison & Wood",41.87409864624,-87.671359777451
49,"Harrison & Paulina",41.874130601571,-87.669171094894
50,"Ashland & Congress",41.875073276656,-87.666478157043
51,"Ashland & Van Buren",41.876559159998,-87.666510343552
52,"Malcolm X College",41.877473839824,-87.674052715302
53,"Jackson & Ogden",41.877521770284,-87.670994997025
54,"Jackson & Paulina",41.877557718105,-87.668924331665
55,"Jackson & Ashland",41.877589671707,-87.666944861412
56,"Jackson & Laflin",41.877641596275,-87.664021253586
57,"Jackson & Loomis",41.877685532416,-87.661660909653
59,"Jackson & Racine",41.877757427854,-87.656784653664
60,"Jackson & Aberdeen",41.877805358101,-87.654354572296
61,"Jackson & Morgan",41.877849294129,-87.651677727699
63,"Jackson & Peoria",41.877885241766,-87.649269104004
64,"Jackson & Halsted",41.877929177739,-87.646973133087
65,"Jackson & Desplaines",41.877961131155,-87.64380812645
67,"Jackson & Canal",41.877993084555,-87.639774084091
69,"Jackson & Financial Place",41.878108915496,-87.632880806923
70,"Jackson & Dearborn",41.878156845479,-87.629528045654
71,"Jackson & State",41.87816882797,-87.628058195114
72,"Jackson & Wabash",41.878224746228,-87.625772953033
73,"Michigan & Van Buren/Congress",41.87627157237,-87.6243942976
74,"Congress Plaza & Michigan",41.874877552888,-87.623605728149
75,"Michigan & Van Buren",41.877006515959,-87.624126076698
76,"Michigan & Jackson",41.878124892161,-87.624158263206
77,"Adams & Wabash",41.879538811203,-87.625778317451
80,"Adams & Wells",41.879434965106,-87.634109258652
86,"Van Buren & Jefferson",41.876750884365,-87.642327547073
87,"Van Buren & Desplaines",41.876754878617,-87.64380812645
88,"Van Buren & Halsted",41.876726918851,-87.647037506104
89,"Van Buren & Peoria",41.876667005025,-87.649376392365
92,"Van Buren & Aberdeen",41.876595108361,-87.65439748764
93,"Van Buren & Racine",41.876555165735,-87.656790018082
94,"Van Buren & Throop",41.876523211616,-87.65930056572
96,"Van Buren & Laflin",41.876423354891,-87.66406416893
97,"Van Buren & Ashland",41.8764073778,-87.666456699371
99,"Van Buren & Ogden",41.876307520894,-87.671847939491
100,"Malcolm X College",41.876279560933,-87.674009799957
101,"Van Buren & Damen",41.876255595242,-87.676075100899
103,"Harrison & Paulina",41.87421847865,-87.66757786274
107,"Harrison & Ogden",41.874114623908,-87.674514055252
108,"Harrison & Damen",41.87407867415,-87.676305770874
111,"Damen & Jackson",41.877381973009,-87.676504254341
118,"Jackson & Rockwell",41.8775457355,-87.690918445587
119,"Jackson & Washtenaw",41.877493810853,-87.6939868927
120,"Jackson & California",41.877465851411,-87.69646525383
121,"Jackson & Francisco",41.877453868789,-87.698782682419
122,"Jackson & Sacramento",41.877413926699,-87.701341509819
123,"Jackson & Albany",41.877385967221,-87.703782320023
124,"Jackson & Kedzie",41.877350019304,-87.706282138824
125,"Jackson & Spaulding",41.877346025089,-87.708594202995
126,"Jackson & Homan",41.877310077149,-87.711174488068
127,"Jackson & St. Louis",41.877274129189,-87.71367430687
128,"Central Park & Jackson",41.876958585113,-87.715798616409
129,"Jackson & Hamlin",41.877198238984,-87.721071839333
130,"Jackson & Springfield",41.877166285186,-87.723357081413
131,"Jackson & Pulaski",41.877122348689,-87.725835442543
132,"Jackson & Karlov",41.877102377543,-87.728152871132
133,"Jackson & Keeler",41.87707441793,-87.730620503426
134,"Jackson & Kildare",41.877046458303,-87.733147144318
135,"Jackson & Kostner",41.8770224929,-87.735528945923
136,"Jackson & Kilbourn",41.876990539015,-87.737975120544
137,"Jackson & Kolmar",41.876978556303,-87.739466428757
138,"Jackson & Kenton",41.876954590874,-87.740775346756
139,"Jackson & Kilpatrick",41.876918642714,-87.742846012115
140,"Jackson & Cicero",41.876838757841,-87.74542093277
141,"4900 W Jackson",41.876810798112,-87.747196555138
142,"Jackson & Lavergne",41.87678683262,-87.74939596653
143,"5056 W Jackson",41.876750884365,-87.75162756443
144,"Jackson & Leamington",41.876718930344,-87.753515839577
145,"Jackson & Laramie",41.876706947582,-87.755200266838
146,"Jackson & Lockwood",41.876674993539,-87.757839560509
147,"5400 W Jackson",41.876651027996,-87.759674191475
148,"Jackson & Lotus",41.876615079665,-87.761777043343
149,"Jackson & Central",41.876575137051,-87.76461482048
150,"5700 W Jackson",41.877146314055,-87.768031954765
151,"Jackson & Menard",41.877098383314,-87.769850492477
152,"Jackson & Mayfield",41.877214215877,-87.771357893944
153,"Harrison & Central Terminal",41.872536809953,-87.764813303947
154,"Harrison & Lotus",41.872844386869,-87.761777043343
155,"5400 W Harrison",41.872868353839,-87.759615182877
156,"Harrison & Lockwood",41.872908298769,-87.757592797279
157,"Harrison & Laramie",41.872936260206,-87.75489449501
158,"Harrison & Leamington",41.872960227142,-87.753301262856
159,"Harrison & Lavergne",41.873016149957,-87.749358415604
160,"Harrison & Cicero",41.873131989918,-87.745265364647
161,"Harrison & Kilpatrick",41.873199896005,-87.742717266083
162,"4630 W Harrison",41.873223862842,-87.740893363953
163,"Harrison & Kolmar ",41.873255818611,-87.739498615265
164,"Harrison & Kilbourn ",41.873283779895,-87.737991213799
165,"Harrison & Kostner",41.873779092049,-87.735577225685
166,"Kostner & Lexington",41.871662005179,-87.735196352005
167,"Fifth Avenue & Kostner",41.870331799635,-87.735003232956
168,"Fifth Avenue & Kildare",41.870942978593,-87.732782363892
169,"Fifth Avenue & Keeler",41.871677983456,-87.730121612549
170,"Fifth Avenue & Karlov",41.872389012727,-87.727562785149
171,"Fifth Avenue & Pulaski",41.872936260206,-87.72557258606
172,"Harrison & Springfield",41.873447552887,-87.723104953766
174,"Harrison & Independence",41.873483503,-87.719532251358
175,"Harrison & Lawndale",41.873499480821,-87.718228697777
177,"Harrison & St. Louis",41.873571380968,-87.713352441788
178,"Harrison & Homan",41.873591353217,-87.710906267166
179,"Harrison & Spaulding",41.873635292142,-87.708540558815
181,"Harrison & Albany",41.873695208809,-87.703557014465
182,"Harrison & Sacramento",41.87371917546,-87.70109474659
183,"Harrison & Francisco",41.873747136542,-87.698702216148
185,"Harrison & Washtenaw",41.873779092049,-87.693793773651
186,"Harrison & Maplewood ",41.873815041975,-87.690703868866
187,"Harrison & Campbell",41.873839008581,-87.688751220703
188,"Harrison & Western",41.873858980746,-87.686401605606
189,"Harrison & Oakley",41.873902919488,-87.683955430984
190,"Harrison & Leavitt",41.873930880489,-87.681509256363
191,"Harrison & Hoyne",41.87396683033,-87.679030895233
192,"Harrison & Damen",41.874010768997,-87.676659822464
193,"Harrison & Ashland",41.874110629491,-87.666451334953
194,"Harrison & Laflin",41.874106635074,-87.664262652397
195,"Harrison & Loomis",41.874110629491,-87.661934494972
196,"1335 W Harrison",41.874146579231,-87.660233974457
197,"1231 W Harrison",41.874170545713,-87.658442258835
198,"Harrison & Racine",41.874202501008,-87.656666636467
199,"1100 W Harrison",41.874246439513,-87.654349207878
200,"Harrison & Morgan",41.874286383582,-87.651940584183
201,"900 W Harrison",41.874346299639,-87.648807764053
202,"Halsted & Harrison",41.874765710466,-87.647096514702
203,"Halsted & Van Buren",41.876551171471,-87.6471555233
204,"Halsted & Jackson",41.877857282494,-87.647193074226
205,"UIC-Halsted Blue Line Station",41.875500671371,-87.64720916748
206,"Harrison & Halsted",41.874442165214,-87.647734880447
207,"900 W Harrison",41.87449409234,-87.649258375168
208,"Harrison & Morgan",41.874450154005,-87.651591897011
209,"1100 W Harrison",41.874398226843,-87.654440402985
210,"Harrison & Racine",41.874354288443,-87.657428383827
211,"1232 W Harrison",41.87433032203,-87.658452987671
212,"1336 W Harrison",41.874310350012,-87.660196423531
213,"Harrison & Loomis",41.874298366798,-87.661623358727
214,"Harrison & Laflin",41.87427839477,-87.664139270782
215,"Harrison & Ashland",41.874286383582,-87.666392326355
216,"Harrison & Hoyne",41.874030741108,-87.67874121666
217,"Harrison & Leavitt",41.874010768997,-87.681203484535
218,"Harrison & Oakley",41.873970824755,-87.683644294739
219,"Harrison & Western",41.873930880489,-87.686026096344
220,"Harrison & Campbell",41.873898925058,-87.688499093056
221,"Harrison & Maplewood ",41.873882947336,-87.690424919128
222,"Harrison & Washtenaw",41.873843003015,-87.693573832512
223,"Harrison & California",41.873843003015,-87.695907354355
224,"Harrison & Francisco",41.873815041975,-87.698353528976
225,"Harrison & Sacramento",41.873787080923,-87.700837254524
226,"Harrison & Albany",41.87375512542,-87.703267335892
227,"Harrison & Kedzie",41.873743142102,-87.705863714218
228,"Congress & Kedzie",41.87494545712,-87.706126570702
229,"Congress & Spaulding",41.874641884698,-87.708191871643
230,"Congress & Homan",41.874589957692,-87.71059513092
231,"Congress & St. Louis",41.874554008202,-87.71274626255
233,"3700 W Congress",41.874542025034,-87.717912197113
234,"Congress & Hamlin/Independence",41.874530041864,-87.719639539719
235,"Congress & Springfield",41.874490097947,-87.722589969635
237,"Congress & Karlov",41.874382249247,-87.727739810944
239,"Congress & Kildare",41.874326327627,-87.732658982277
240,"Harrison & Kostner",41.873787080923,-87.73572742939
241,"Harrison & Kilbourn ",41.873355680285,-87.737465500832
242,"Harrison & Kolmar ",41.8733197301,-87.739133834839
243,"4630 W Harrison",41.873287774363,-87.74076461792
244,"Harrison & Kilpatrick",41.87326380755,-87.742352485657
246,"Harrison & Lavergne",41.873092045128,-87.748886346817
247,"Harrison & Leamington",41.873024138926,-87.753081321716
248,"Harrison & Laramie",41.873008160986,-87.754492163658
249,"Harrison & Lockwood",41.872972210606,-87.757281661034
250,"5400 W Harrison",41.872928271225,-87.759572267532
252,"Harrison & Central",41.872900309785,-87.76448071003
257,"5500 W Roosevelt",41.86560595069,-87.76281774044
258,"Roosevelt & 54th Avenue",41.865669869827,-87.75947034359
259,"5300 W. Roosevelt",41.86569783443,-87.757061719894
260,"Roosevelt & Laramie",41.865745773721,-87.754712104797
261,"Roosevelt & 51st Avenue",41.865785723102,-87.752169370651
262,"Roosevelt & 50th Avenue",41.865817682589,-87.7498036623
263,"Roosevelt & 49th Avenue",41.865845647127,-87.74729847908
265,"Roosevelt & 47th Avenue",41.865921550812,-87.742438316345
268,"Roosevelt & Kilbourn",41.865989464558,-87.737503051758
270,"Roosevelt & Kildare",41.866057378233,-87.732626795769
272,"Roosevelt & Karlov",41.866149261325,-87.727745175362
274,"Roosevelt & Springfield",41.866193205365,-87.722863554955
275,"Roosevelt & Independence",41.86621717483,-87.720331549644
277,"Roosevelt & Lawndale",41.866237149376,-87.717992663383
278,"Roosevelt & Central Park",41.866257123916,-87.71560549736
279,"Roosevelt & St. Louis",41.866289083168,-87.713094949722
283,"Roosevelt & Albany",41.866408930218,-87.703304886818
284,"Roosevelt & Sacramento",41.866440889394,-87.700928449631
285,"Roosevelt & Francisco",41.866456868976,-87.698423266411
287,"Roosevelt & Washtenaw",41.866508802589,-87.693536281586
288,"Roosevelt & Talman",41.866520787263,-87.692302465439
296,"Roosevelt & Wolcott",41.866684577582,-87.673623561859
297,"Roosevelt & Wood",41.86671653662,-87.671456336975
298,"Roosevelt & Paulina",41.86676048027,-87.669010162354
300,"Roosevelt & Laflin",41.866788444396,-87.664048075676
302,"Roosevelt & Throop",41.866880326437,-87.659338116646
303,"Roosevelt & Racine",41.866912285377,-87.656800746918
305,"Roosevelt & Blue Island",41.86695223403,-87.653641104698
306,"Roosevelt & Morgan",41.866996177518,-87.651221752167
307,"900 E Roosevelt",41.867020146681,-87.649419307709
310,"Roosevelt & Jefferson",41.867120018097,-87.642295360565
312,"Roosevelt & Canal",41.867151976917,-87.638840675354
313,"327 W Roosevelt",41.867199915117,-87.635573744774
315,"Roosevelt & Clark",41.86727182235,-87.630681395531
316,"Roosevelt & State",41.867311770778,-87.627119421959
318,"Roosevelt & Michigan",41.867335739823,-87.624329924583
326,"327 W Roosevelt",41.867399657231,-87.635552287102
327,"Roosevelt & Canal",41.86735571402,-87.639044523239
328,"Roosevelt & Clinton",41.867335739823,-87.640573382378
329,"Roosevelt & Jefferson",41.867323755301,-87.6420378685
331,"Roosevelt & Halsted",41.867267827506,-87.646538615227
332,"900 W Roosevelt",41.867211899662,-87.649462223053
333,"Roosevelt & Morgan",41.867183935721,-87.650862336159
334,"Roosevelt & Blue Island",41.867151976917,-87.653083205223
335,"Roosevelt & May",41.86711202839,-87.655030488968
336,"Roosevelt & Racine",41.867096048972,-87.656500339508
337,"Roosevelt & Throop",41.867056100409,-87.659032344818
340,"Roosevelt & Ashland",41.866948239166,-87.666167020798
341,"Roosevelt & Paulina",41.866956228893,-87.668795585632
342,"Roosevelt & Wood",41.866928264841,-87.671113014221
343,"Roosevelt & Wolcott",41.866908290511,-87.67343044281
344,"Roosevelt & Damen",41.866848367481,-87.67596244812
348,"Roosevelt & Western",41.866644628762,-87.685843706131
349,"Roosevelt & Campbell ",41.866616664574,-87.688778042793
350,"Roosevelt & Talman",41.866584705486,-87.692329287529
351,"Roosevelt & Washtenaw",41.866580710599,-87.693300247192
353,"Roosevelt & Francisco",41.866524782154,-87.698214054108
354,"Roosevelt & Sacramento",41.866500812805,-87.700542211533
355,"Roosevelt & Albany",41.866472848553,-87.703063488007
356,"Roosevelt & Kedzie",41.86645287408,-87.70550429821
357,"Roosevelt & Spaulding",41.866428904705,-87.707934379578
358,"Roosevelt & Homan",41.866392950624,-87.710439562798
359,"Roosevelt & St. Louis",41.866360991425,-87.712858915329
361,"Roosevelt & Lawndale",41.866293078073,-87.717788815498
362,"Roosevelt & Independence",41.866285088262,-87.719382047653
364,"Roosevelt & Springfield",41.866261118824,-87.722573876381
365,"Roosevelt & Pulaski",41.866221169739,-87.725282907486
366,"Roosevelt & Karlov",41.866213179919,-87.727525234222
367,"Roosevelt & Keeler",41.866161246066,-87.730137705803
368,"Roosevelt & Kildare",41.866117302003,-87.732401490211
369,"Roosevelt & Kostner",41.866093332502,-87.734831571579
370,"Roosevelt & Kilbourn",41.866049388393,-87.737132906914
373,"Roosevelt & 47th Avenue",41.865977479785,-87.742282748222
375,"Roosevelt & 49th Avenue",41.865921550812,-87.747024893761
376,"Roosevelt & 50th Avenue",41.865881601515,-87.749454975128
377,"Roosevelt & 51st Avenue",41.865853636993,-87.752003073692
379,"5300 W Roosevelt",41.865765748415,-87.75691151619
380,"Roosevelt & 54th Avenue",41.865737783841,-87.759255766869
381,"5500 W Roosevelt",41.865677859715,-87.762705087662
382,"Roosevelt & Central",41.865645900158,-87.764132022858
386,"Madison & Austin Terminal",41.880309663492,-87.774034738541
388,"Madison & Mayfield",41.880070021289,-87.771502733231
389,"Madison & Menard",41.880085997464,-87.769914865494
390,"Madison & Waller",41.880109961719,-87.768219709396
391,"Madison & Parkside",41.880141914044,-87.766642570496
393,"Madison & Pine",41.880257741091,-87.763209342957
394,"Madison & Lotus ",41.880285699312,-87.761970162392
395,"Madison & Long",41.880293687373,-87.760033607483
396,"Madison & Lockwood ",41.880325639607,-87.757807374001
397,"Madison & Laramie",41.88036158585,-87.755339741707
402,"Madison & Kilpatrick",41.880505370624,-87.743006944656
403,"Madison & Kenton",41.880545310781,-87.740732431412
406,"Madison & Kildare",41.880625191021,-87.733200788498
409,"Madison & Pulaski",41.880717053173,-87.725910544395
410,"Madison & Springfield",41.880745011194,-87.723399996758
411,"Madison & Hamlin",41.8807609872,-87.721018195152
412,"Madison & Central Park",41.880820897187,-87.715991735458
413,"Madison & St. Louis",41.880844861166,-87.713738679886
415,"Madison & Spaulding",41.880912759058,-87.708578109741
416,"Madison & Kedzie",41.880936723003,-87.706416249275
417,"Madison & Albany ",41.88097666289,-87.703138589859
420,"Madison & California",41.881064530556,-87.696003913879
421,"Madison & Washtenaw",41.881058333332,-87.694191666665
423,"Madison & Campbell ",41.88112044628,-87.688965797424
427,"Madison & Hoyne",41.881244259495,-87.679315209389
428,"Madison & Damen",41.881296181094,-87.67672419548
429,"Madison & United Center (1900 W)",41.881328132826,-87.674235105515
430,"Madison & Wood",41.881360084543,-87.671853303909
431,"Madison & Paulina",41.881396030205,-87.669525146484
432,"Madison & Ashland",41.881416000008,-87.667025327682
435,"Madison & Throop ",41.881499873115,-87.659772634506
436,"Madison & Racine ",41.881535818698,-87.657315731049
437,"Madison & Aberdeen ",41.881571764261,-87.654896378517
439,"Madison & Peoria",41.881667618997,-87.649816274643
440,"Halsted & Madison",41.882007103365,-87.647316455841
442,"Washington & Jefferson",41.883145361316,-87.64285326004
443,"Washington & Canal",41.883157342871,-87.640010118484
445,"Washington & Franklin",41.883217250611,-87.635482549667
446,"Washington & Lasalle",41.883217250611,-87.632601857185
447,"Washington & Dearborn",41.883237219846,-87.629570960999
448,"Washington & State",41.883221244459,-87.627494931221
449,"Washington & Wabash",41.883229232153,-87.625987529755
450,"Madison & Wabash",41.882130914862,-87.625998258591
452,"Madison & Clark",41.882063018264,-87.630686759949
453,"Madison & Wells",41.882023079055,-87.634098529816
454,"Madison & N. Wacker",41.881963170195,-87.637429833412
455,"Madison & Clinton",41.881891279489,-87.641034722328
456,"Madison & Jefferson",41.88186332197,-87.642574310303
458,"Madison & Peoria",41.881815394767,-87.649478316307
459,"Madison & Morgan",41.881775455404,-87.651913762093
460,"Madison & Aberdeen ",41.881735516015,-87.654252648354
462,"Madison & Throop ",41.881675606886,-87.65946149826
463,"Madison & Loomis ",41.881611703752,-87.662063241005
464,"Madison & Laflin",41.881571764261,-87.664552330971
465,"Madison & Ashland",41.881483897293,-87.666531801224
466,"Madison & Paulina",41.881463927511,-87.669106721878
468,"Madison & United Center (1900 W)",41.881392036243,-87.674256563187
469,"Madison & Damen",41.881364078506,-87.676455974579
470,"Madison & Hoyne",41.881316150929,-87.678912878036
473,"Madison & Western",41.881200325801,-87.686787843704
478,"Madison & Francisco",41.881096482404,-87.698568105698
479,"Madison & Sacramento",41.881060536573,-87.701073288918
480,"Madison & Albany ",41.881036572675,-87.703422904015
482,"Madison & Spaulding",41.88097666289,-87.708545923233
484,"Madison & St. Louis",41.880912759058,-87.713840603828
485,"Madison & Central Park",41.880884801111,-87.715981006622
486,"Madison & Hamlin",41.880828885181,-87.720975279808
487,"Madison & Springfield",41.880808915194,-87.72309422493
494,"Madison & Kenton ",41.88060522097,-87.740614414215
495,"Madison & Kilpatrick",41.880569274864,-87.742631435394
496,"Madison & Cicero",41.880545310781,-87.74512052536
497,"Madison & Lamon",41.88052134669,-87.747502326965
498,"Madison & Lavergne",41.880493388572,-87.749986052513
499,"Madison & Leclaire",41.880457442402,-87.752442955971
502,"Madison & Long",41.88036158585,-87.759947776794
505,"Madison & Central",41.880353597798,-87.764738202095
506,"Madison & Parkside",41.88033762169,-87.766406536102
507,"Madison & Waller",41.88031765155,-87.767978310585
508,"Madison & Menard",41.880281705281,-87.769662737846
509,"Madison & Mayfield",41.880245758992,-87.771711945534
510,"Chicago & Austin Terminal",41.89493013149,-87.774855494499
511,"Chicago & Mayfield",41.894734468542,-87.772409319878
512,"Chicago & Menard ",41.894762420428,-87.770290374756
513,"Chicago & Waller ",41.894782386054,-87.768042683601
515,"Chicago & Central",41.894822317287,-87.76556968689
516,"Chicago & Pine",41.894866241614,-87.76347219944
518,"Chicago & Lockwood",41.894902179677,-87.758156061172
520,"Chicago & Leclaire",41.89493013149,-87.753263711929
522,"Chicago & Lamon",41.894942110835,-87.748349905014
523,"Chicago & Cicero",41.894986035079,-87.746037840843
524,"Chicago & Kilpatrick",41.895033952402,-87.743645310402
525,"Chicago & Kilbourn ",41.895141766248,-87.738468647003
527,"Chicago & Kildare",41.895229614433,-87.733592391014
528,"Chicago & Keeler",41.89527353848,-87.731076478958
529,"Chicago & Karlov",41.895337427948,-87.728662490845
530,"Chicago & Pulaski",41.895369372659,-87.726232409477
531,"Chicago & Springfield",41.895385345008,-87.723711133003
535,"Chicago & St. Louis",41.895461213612,-87.71410882473
537,"Chicago & Spaulding",41.8955051375,-87.709087729454
538,"Chicago & Kedzie",41.895513123658,-87.70664691925
540,"Chicago & Sacramento",41.895569026737,-87.702559232712
543,"Chicago & Grand",41.89561295055,-87.699136734009
544,"Chicago & California",41.89563291591,-87.696862220764
545,"Chicago & Washtenaw",41.895640902052,-87.694346308708
547,"Chicago & Campbell",41.895696805019,-87.689437866211
548,"Chicago & Western",41.89570878422,-87.687007784843
550,"Chicago & Leavitt",41.895788645502,-87.682110071182
551,"Chicago & Hoyne",41.895832569164,-87.679631710052
552,"Chicago & Damen",41.895876492797,-87.677233815193
553,"Chicago & Wolcott",41.895920416399,-87.674723267555
556,"Chicago & Ashland",41.896056180068,-87.667481303215
557,"Chicago & Bishop",41.896100103547,-87.664139270782
559,"Chicago & Elizabeth ",41.896156006112,-87.659547328949
561,"Chicago & Milwaukee",41.896231873801,-87.655566930771
562,"Chicago & Ogden",41.896251838967,-87.65429019928
563,"Chicago & Sangamon ",41.89630374837,-87.651264667511
565,"Chicago & Halsted",41.896387601932,-87.647616863251
566,"700 W Chicago",41.89640756705,-87.64612019062
567,"Chicago & Larrabee",41.896467462365,-87.642751336098
569,"Chicago & Hudson",41.896475448403,-87.640224695206
571,"Chicago & Orleans",41.896531350639,-87.637365460396
572,"Chicago & Franklin (Brown Line)",41.896555308726,-87.635863423347
574,"Chicago & LaSalle",41.896587252827,-87.632961273193
575,"Chicago & Clark",41.896607217882,-87.631373405457
576,"Chicago & Dearborn",41.896639161958,-87.62991964817
577,"Chicago & State (Red Line)",41.896659126997,-87.62839615345
578,"Chicago & Wabash",41.896687078041,-87.626969218254
579,"Chicago & Rush",41.896699057056,-87.625692486763
580,"Chicago & Michigan",41.896707043065,-87.624528408051
582,"Chicago & Fairbanks",41.896750966095,-87.620708942413
584,"Fairbanks & Huron",41.895057911051,-87.620349526405
585,"Fairbanks & Erie",41.894315188778,-87.620333433151
587,"Fairbanks & Ohio",41.892314587437,-87.620269060135
589,"Grand & McClurg",41.891871331953,-87.617581486702
590,"Grand & Fairbanks/Columbus",41.891851365418,-87.620022296906
591,"Fairbanks & Ohio",41.892458345311,-87.620193958282
593,"Fairbanks & Erie",41.894075599106,-87.620242238045
594,"Fairbanks & Huron",41.894902179677,-87.620263695717
596,"Fairbanks & Chicago",41.896623189922,-87.620301246643
597,"Chicago & Mies Van Der Rohe",41.896798882094,-87.621738910675
599,"Chicago & Michigan",41.896762945099,-87.624496221542
600,"Chicago & Wabash",41.896750966095,-87.626700997353
601,"Chicago & State (Red Line)",41.896719022076,-87.628079652786
602,"Chicago & Dearborn",41.896699057056,-87.629613876343
603,"Chicago & Clark",41.896671106017,-87.631062269211
604,"Chicago & LaSalle",41.896655133989,-87.632526755333
606,"Chicago & Franklin (Brown Line)",41.896619196912,-87.635520100594
609,"Chicago & Hudson",41.896539336669,-87.639741897583
611,"Chicago & Larrabee",41.896527357624,-87.642606496811
612,"700 W Chicago",41.896463469346,-87.646163105965
613,"Chicago & Halsted",41.896435518204,-87.648169398308
615,"Chicago & Sangamon",41.896363643783,-87.651709914207
617,"Chicago Blue Line Station",41.896299755341,-87.655100226402
618,"Chicago & Racine",41.896255831999,-87.657401561737
620,"Chicago & Noble",41.896175971302,-87.662277817726
621,"Chicago & Greenview",41.896156006112,-87.664713263512
622,"Chicago & Ashland",41.896112082672,-87.667068243027
623,"Chicago & Paulina",41.896080138333,-87.669551968575
625,"Chicago & Wolcott",41.895988298269,-87.674497961998
629,"Chicago & Oakley",41.895800624686,-87.68426656723
631,"Chicago & Campbell",41.895752707938,-87.689158916473
633,"Chicago & Washtenaw",41.895700798087,-87.694142460823
636,"Chicago & Grand",41.895668853542,-87.699764370918
638,"Chicago & Sacramento",41.895624929767,-87.702687978745
641,"Chicago & Spaulding",41.895561040586,-87.708749771118
643,"Chicago & St. Louis",41.895529095971,-87.713765501976
644,"Chicago & Central Park",41.895497151341,-87.716131210327
647,"Chicago & Springfield",41.895445241282,-87.723721861839
648,"Chicago & Pulaski",41.895433262032,-87.725974917412
649,"Chicago & Karlov",41.895397324267,-87.728624939919
650,"Chicago & Keeler",41.895333434858,-87.731081843376
651,"Chicago & Kildare",41.895281524667,-87.733570933342
653,"Chicago & Kilbourn ",41.895205655849,-87.738296985626
654,"Chicago & Kilpatrick",41.895089855901,-87.743613123894
656,"Chicago & Lamon",41.895002007524,-87.748328447342
658,"Chicago & Leclaire",41.894986035079,-87.753269076347
660,"Chicago & Lockwood",41.894954090177,-87.758172154427
662,"Chicago & Pine",41.894918152143,-87.763477563858
663,"Chicago & Central",41.894903333334,-87.765113333332
665,"Chicago & Waller",41.894854262255,-87.767688632011
667,"Chicago & Mayfield",41.894790372303,-87.772420048714
668,"Grand & Nordica Terminal",41.924009359974,-87.801602482796
669,"Grand & Sayre",41.923518428591,-87.800862193108
670,"Grand & Newland",41.923534393899,-87.799022197723
671,"Grand & Newcastle ",41.923546367877,-87.797192931175
672,"Grand & Oak Park",41.923558341853,-87.795417308807
677,"Grand & Mobile",41.921917886227,-87.783073782921
680,"Grand & Austin",41.920548811899,-87.775713801384
681,"Grand & Marmora",41.92011373548,-87.773256897926
683,"Grand & Major",41.919207649381,-87.768353819847
685,"5500 W Grand",41.91825764221,-87.76317179203
686,"Grand & Long",41.917846500268,-87.760999202728
688,"Grand & Latrobe ",41.917211819643,-87.757624983788
689,"Grand & Laramie",41.916936390238,-87.756106853485
690,"Grand & Leclaire/Armitage",41.916816637952,-87.753526568413
691,"Grand & Lamon",41.915251854097,-87.7494764328
692,"Grand & Cicero",41.913950499528,-87.74615585804
693,"4701 W Grand",41.912972470195,-87.743634581566
694,"Grand & Kenton ",41.912154107604,-87.741563916206
695,"Grand & Kilbourn",41.911020358678,-87.738699316978
696,"Grand & Kostner",41.910122127803,-87.73640871048
698,"Grand & Kildare",41.909160008713,-87.734005451202
700,"Grand & Karlov",41.907187818863,-87.72897362709
702,"Grand & Springfield",41.905195605721,-87.723995447159
703,"Grand & Hamlin",41.904261360111,-87.721602916718
704,"Grand & Lawndale",41.903466841336,-87.719623446465
707,"Grand & Drake",41.901666161689,-87.715101242065
708,"Grand & Thomas",41.901087218421,-87.713695764542
709,"Grand & Homan",41.900176869424,-87.712032794952
710,"Grand & Augusta",41.899470142175,-87.709575891495
712,"Grand & Albany",41.897369878317,-87.70430803299
713,"Grand & Sacramento",41.896862770037,-87.703042030334
714,"Grand & Sacramento Blvd.",41.896463469346,-87.702044248581
715,"Grand & Chicago",41.895840555282,-87.70052075386
716,"Grand & California",41.894323175085,-87.696706652641
717,"Grand & Washtenaw",41.893360817911,-87.694265842438
718,"Grand & Talman",41.892809752087,-87.69287109375
719,"Grand & Rockwell",41.892362506764,-87.691766023636
720,"Grand & Campbell",41.891372166691,-87.689309120178
721,"Grand & Western",41.890617421405,-87.686905860901
722,"Grand & Oakley",41.890665342006,-87.684363126755
723,"Grand & Leavitt",41.890721249328,-87.681911587715
724,"Grand & Hoyne",41.890749202971,-87.679460048676
725,"Grand & Damen",41.890785143351,-87.677013874054
726,"Grand & Wolcott",41.890849037309,-87.674578428268
727,"Grand & Wood",41.890892964368,-87.672148346901
728,"Grand & Paulina",41.89091692457,-87.66972899437
729,"Grand & Ashland",41.890948871491,-87.667309641838
730,"Grand & Armour",41.890968838309,-87.665619850159
731,"Grand & Noble",41.891000785204,-87.662369012833
735,"Grand & Aberdeen",41.89109263244,-87.654740810394
736,"Grand & Morgan",41.891116592566,-87.652455568314
737,"Grand & Peoria",41.891128572626,-87.649869918823
738,"Grand & Halsted/Milwaukee (Blue Line)",41.891144546036,-87.647788524628
739,"Grand & Union",41.891164512792,-87.645900249481
741,"530 W Grand",41.891228406371,-87.643132209778
742,"Grand & Kingsbury",41.891448040062,-87.639977931976
743,"Grand & Orleans",41.891507940028,-87.637209892273
744,"Grand & Franklin",41.891543879981,-87.635697126389
745,"Grand & Wells",41.891551866635,-87.63416826725
746,"Illinois & LaSalle",41.8907611831,-87.63280570507
747,"Illinois & Clark",41.890789136725,-87.631486058235
750,"Illinois & Rush",41.890888971001,-87.625494003296
751,"Illinois (Lower) & Michigan",41.890900951103,-87.624335289001
754,"Illinois & McClurg",41.891016758646,-87.617865800858
755,"Illinois & Peshtigo",41.891068672304,-87.615371346474
756,"Illinois & Lake Shore",41.891088639084,-87.613134384155
758,"Navy Pier Terminal",41.892318580716,-87.610012292862
759,"Grand & Streeter",41.891975157838,-87.612190246582
760,"Grand & Peshtigo",41.891911265006,-87.615392804146
761,"Grand & St. Clair",41.891799452396,-87.62254357338
764,"Grand & State (Red Line)",41.891695626226,-87.627789974213
765,"Grand & Dearborn",41.891683646272,-87.629565596581
766,"Grand & Clark",41.891663679678,-87.63095498085
769,"Grand & Franklin",41.891615759826,-87.63419508934
771,"Grand & Kingsbury",41.891519920015,-87.639752626419
772,"530 W Grand",41.891320253279,-87.642778158188
776,"Grand & Peoria",41.891192466241,-87.649848461151
778,"Grand & Aberdeen",41.891144546036,-87.654526233673
780,"Grand & Racine",41.891112599212,-87.657240629196
781,"Grand & Ogden",41.89112058592,-87.658656835556
782,"Grand & Noble",41.891076659017,-87.662090063095
783,"Grand & Armour",41.891040718801,-87.665394544601
784,"Grand & Ashland",41.891016758646,-87.666960954666
785,"Grand & Paulina",41.890984811759,-87.669471502304
786,"Grand & Wood",41.890956858219,-87.67190694809
787,"Grand & Wolcott",41.890924911302,-87.674369215965
788,"Grand & Damen",41.890849037309,-87.67672419548
789,"Grand & Hoyne",41.890825077082,-87.679224014282
790,"Grand & Leavitt",41.890785143351,-87.68162727356
791,"Grand & Oakley",41.890725242706,-87.684116363525
794,"Grand & Rockwell",41.892354520212,-87.691562175751
795,"Grand & Talman",41.892797772343,-87.692656517029
796,"Grand & Washtenaw",41.893364811124,-87.694072723389
797,"Grand & California",41.894195394055,-87.696229219437
798,"Grand & Chicago",41.89528551776,-87.69894361496
799,"Grand & Sacramento",41.896423539139,-87.701743841171
800,"Grand & Sacramento",41.897014503646,-87.703213691711
801,"Grand & Albany",41.897266061202,-87.703857421875
802,"Grand & Kedzie",41.898212387895,-87.706325054169
803,"Grand & Augusta",41.899002979191,-87.708256244659
805,"Grand & Thomas",41.901067254766,-87.713459730148
806,"Grand & Drake",41.901841839988,-87.715364098549
808,"Grand & Division",41.902608430543,-87.717300653458
809,"Grand & Lawndale",41.90349878198,-87.719505429268
811,"Grand & Springfield",41.905139711069,-87.723673582077
812,"Grand & Pulaski",41.906277556844,-87.726575732231
813,"Grand & Karlov",41.907171849465,-87.728748321533
814,"Grand & Keeler",41.908157952253,-87.731248140335
815,"Grand & Kildare",41.90897237384,-87.733340263367
817,"Grand & Kostner",41.910042284447,-87.736038565636
818,"Grand & Kilbourn",41.91100439024,-87.738463282585
819,"Grand & Kenton ",41.911986441778,-87.740968465805
820,"4700 W Grand",41.912904606379,-87.743285894394
821,"Grand & Cicero",41.913886628682,-87.74582862854
822,"Grand & Lamon",41.915251854097,-87.749261856079
823,"Grand & Leclaire/Armitage",41.916641000859,-87.752754092216
826,"Grand & Lockwood ",41.917395438586,-87.758252620697
828,"5500 W Grand",41.918325500334,-87.763241529465
829,"Grand & Central ",41.918888320818,-87.766320705414
830,"Grand & Major",41.919259540122,-87.768284082413
832,"Grand & Marmora",41.920121718561,-87.772967219353
833,"Grand & Austin",41.920560786437,-87.775408029556
834,"Grand & Meade",41.921035774647,-87.777977585793
836,"Grand & Mobile",41.921925869082,-87.782810926437
837,"Grand & Narragansett",41.922648313284,-87.785283923149
838,"Grand & Natchez",41.923262983126,-87.787697911263
840,"Grand & Normandy ",41.92364615094,-87.79260635376
842,"Grand & New England ",41.923606237734,-87.797498703003
844,"Grand & Sayre",41.923582289798,-87.80085682869
845,"Neva & North Ave",41.909040241837,-87.804011106491
846,"North Ave & Forest",41.908880552318,-87.801296710968
847,"North Ave & Kenilworth",41.908912490254,-87.798099517822
848,"North Ave & Oak Park",41.908952412651,-87.795127630234
849,"North Ave & Linden",41.909040241837,-87.792472243309
850,"North Ave & East",41.909048226302,-87.790095806122
851,"North Ave & Elmwood",41.909096133074,-87.787472605705
852,"North Ave & Narragansett",41.909116094218,-87.785149812698
854,"North Ave & Ridgeland",41.909128070902,-87.783497571945
856,"North Ave & Lombard",41.909160008713,-87.780933380127
857,"North Ave & Taylor",41.909199930956,-87.778294086456
859,"North Ave & Mayfield ",41.90922787651,-87.772945761681
860,"North Ave & Menard",41.909231868732,-87.770869731903
861,"North Ave & Waller",41.909287759801,-87.768064141273
863,"North Ave & Linder",41.909335666393,-87.763182520866
864,"North Ave & Long",41.909375588525,-87.761063575745
865,"North Ave & Lockwood",41.909399541793,-87.758193612099
866,"North Ave & Laramie",41.909431479469,-87.756090760231
867,"North Ave & Leclaire ",41.909483378158,-87.752754092216
868,"North Ave & Lavergne",41.909499346977,-87.751155495644
870,"North Ave & Cicero",41.909555237812,-87.746381163597
871,"North Ave & Kilpatrick",41.909647058364,-87.743806242943
872,"North Ave & Kenton",41.90970294907,-87.740560770035
873,"North Ave & Kilbourn",41.909726902214,-87.738747596741
874,"North Ave & Kostner",41.909762831914,-87.736553549767
875,"North Ave & Grand",41.909774808477,-87.734466791153
876,"North Ave & Keeler",41.90981073815,-87.731553912163
879,"North Ave & Springfield",41.909918527048,-87.724242210388
880,"North Ave & Hamlin",41.909926511404,-87.721774578094
881,"North Ave & Lawndale",41.909950464464,-87.719129920006
882,"North Ave & Central Park",41.909990386212,-87.716571092606
883,"North Ave & St. Louis ",41.910002362732,-87.714478969574
885,"North Ave & Spaulding",41.910058253127,-87.710149884224
887,"North Ave & Albany",41.910134104298,-87.704780101776
888,"North Ave & Humboldt",41.910166041607,-87.702049612999
889,"North Ave & Francisco",41.910193986739,-87.698932886124
890,"North Ave & California",41.910170033769,-87.697248458862
891,"North Ave & Washtenaw",41.910217939699,-87.694657444954
893,"North Ave & Campbell",41.910277822061,-87.689808011055
894,"North Ave & Western",41.910309759297,-87.687050700188
895,"North Ave & Oakley",41.910329720062,-87.684856653214
896,"North Ave & Leavitt",41.910377625872,-87.682437300682
897,"North Ave & Hoyne",41.9104215395,-87.680055499077
898,"North Ave & Milwaukee/Damen (Blue Line)",41.910465453097,-87.677727341652
899,"North Ave & Wolcott",41.910477429527,-87.675125598907
900,"North Ave & Wood",41.910521343086,-87.672679424286
901,"North Ave & Paulina",41.910557272339,-87.670238614082
902,"North Ave & Ashland",41.910597193708,-87.667888998985
903,"North Ave & Bosworth",41.910609170113,-87.666285037994
910,"North Ave & Sheffield",41.910808776544,-87.653217315674
913,"North Ave & Clybourn/Halsted (Red Line)",41.910900595292,-87.649263739586
915,"North Ave & Orchard",41.910920555872,-87.645964622498
916,"North Ave & Larrabee",41.910980437575,-87.643845677376
917,"North Ave & Cleveland",41.911020358678,-87.641104459763
918,"North Ave & Sedgwick (Brown Line)",41.911052295544,-87.6388245821
919,"North Ave & North Park",41.911092216602,-87.636802196503
920,"North Ave & Wells",41.911100200811,-87.634919285774
922,"North Ave & Clark",41.91119201914,-87.631866931915
923,"North Ave & Clark Terminal",41.911279845245,-87.631239295006
924,"North Ave & Clark",41.911247908494,-87.631850838661
926,"North Ave & Wells",41.911279845245,-87.63454914093
927,"North Ave & Sedgwick (Brown Line)",41.911231940112,-87.638400793076
928,"North Ave & Cleveland",41.91119201914,-87.640755772591
929,"North Ave & Larrabee",41.911048303436,-87.64383494854
933,"North Ave & Fremont",41.910904587409,-87.651007175446
934,"North Ave & Sheffield/Kingsbury",41.910868658351,-87.653979063034
939,"North Ave & Bosworth",41.910673044239,-87.666258215904
941,"North Ave & Paulina",41.910625138651,-87.670013308525
942,"North Ave & Wood",41.9105852173,-87.672480940819
943,"North Ave & Wolcott",41.910533319506,-87.675141692162
945,"North Ave & Milwaukee/Damen (Blue Line)",41.910517350946,-87.678156495094
946,"North Ave & Hoyne",41.910493398098,-87.679781913757
947,"North Ave & Leavitt",41.910437508084,-87.682217359543
948,"North Ave & Oakley",41.910393594467,-87.684625983238
949,"North Ave & Western",41.910365649423,-87.686980962753
950,"North Ave & Campbell",41.910349680821,-87.689534425735
951,"North Ave & Rockwell",41.910313751451,-87.691948413849
954,"North Ave & Francisco",41.910253869123,-87.69894361496
957,"North Ave & Albany",41.910197978899,-87.704393863678
959,"North Ave & Spaulding",41.910118135638,-87.709817290306
961,"North Ave & Drake",41.910054260957,-87.714725732803
962,"North Ave & Central Park",41.910050268787,-87.716544270515
963,"North Ave & Lawndale",41.910010347077,-87.71884560585
964,"North Ave & Hamlin",41.910002362732,-87.721291780472
965,"North Ave & Springfield",41.909986394039,-87.723818421364
967,"North Ave & Karlov",41.909922519226,-87.728673219681
968,"North Ave & Keeler",41.909878605255,-87.731108665466
971,"North Ave & Kostner/Grand",41.909818722519,-87.736794948578
972,"North Ave & Kilbourn",41.90980275378,-87.738398909569
973,"North Ave & Kenton",41.909766824102,-87.740453481674
974,"North Ave & Kilpatrick",41.909718917834,-87.743344902992
975,"North Ave & Cicero",41.909758839727,-87.745871543884
976,"North Ave & Lamon",41.909714925643,-87.74909555912
977,"North Ave & Lavergne",41.909671011529,-87.751021385193
978,"North Ave & Leclaire ",41.909659034948,-87.752539515495
979,"North Ave & Laramie",41.909627097386,-87.755565047264
980,"North Ave & Lockwood",41.909583183212,-87.757995128632
981,"North Ave & Long",41.909555237812,-87.760425209999
982,"North Ave & Linder",41.909523300198,-87.763187885284
984,"North Ave & Major",41.909467409335,-87.767822742462
985,"North Ave & Menard",41.909423495051,-87.770113348961
986,"North Ave & Mayfield ",41.909383572949,-87.773085236549
987,"North Ave & Austin",41.909359619675,-87.775096893311
988,"North Ave & Meade",41.90926779871,-87.777489423752
989,"North Ave & Melvina",41.90922787651,-87.779983878136
990,"North Ave & Merrimac",41.909215899846,-87.781577110291
992,"North Ave & Narragansett",41.909183962062,-87.784404158592
993,"North Ave & Nagle",41.909160008713,-87.786490917206
996,"North Ave & Natoma",41.909116094218,-87.790964841843
997,"North Ave & Oak Park",41.909128070902,-87.794516086578
998,"North Ave & New England",41.909100125303,-87.797069549561
999,"North Ave & Sayre",41.909060202998,-87.800127267838
1000,"North Ave & Nordica",41.909044234069,-87.801994085312
1001,"North Ave & Neva",41.909028265137,-87.803710699081
1003,"Harlem & North Ave",41.909742870972,-87.805738449097
1004,"Harlem & Wabansia",41.910609170113,-87.805770635605
1005,"Wabansia & Neva",41.910708973406,-87.804048657417
1006,"Paulina & Howard Terminal",42.017755808411,-87.672979831696
1011,"Howard & Sheridan",42.019198516596,-87.666247487068
1012,"Sheridan & Birchwood",42.018026816865,-87.665684223175
1014,"Sheridan & Jarvis",42.015830818068,-87.66507267952
1015,"Sheridan & Sherwin",42.014882250672,-87.664659619331
1016,"Sheridan & Chase",42.013770256594,-87.66403734684
1017,"Sheridan & Touhy",42.012714043499,-87.663474082947
1018,"Sheridan & Estes",42.011438592988,-87.662857174873
1019,"Sheridan & Greenleaf",42.010230877211,-87.662438750267
1020,"Sheridan & Lunt",42.008987264727,-87.662025690079
1021,"Sheridan & Morse",42.007803418717,-87.661607265472
1022,"Sheridan & Farwell",42.006551786519,-87.661274671555
1023,"Sheridan & Pratt",42.005387826199,-87.660925984383
1025,"Sheridan & North Shore",42.003342871738,-87.660872340202
1027,"Sheridan & Loyola (Red Line)",42.001421431633,-87.660807967186
1028,"Sheridan & Arthur",42.000185619994,-87.66077041626
1029,"Sheridan & Broadway/Devon",41.998156444954,-87.660427093506
1030,"Sheridan & Winthrop",41.998192324839,-87.658501267433
1031,"Sheridan & Kenmore",41.998204284796,-87.656886577606
1032,"Sheridan & Rosemont",41.99623086146,-87.655631303787
1033,"Sheridan & Granville",41.994424826478,-87.655577659607
1034,"Sheridan & Glenlake",41.992184155555,-87.6554864645
1035,"Sheridan & Thorndale",41.989947392923,-87.655427455902
1036,"Sheridan & Ardmore",41.987455363382,-87.655357718468
1037,"Sheridan & Hollywood",41.985334070977,-87.655293345451
1038,"Sheridan & Bryn Mawr",41.983483863504,-87.655223608017
1039,"Sheridan & Catalpa",41.981693417583,-87.655191421509
1040,"Sheridan & Balmoral",41.979803226281,-87.655121684074
1041,"Sheridan & Berwyn ",41.97800470103,-87.655068039894
1042,"Sheridan & Foster",41.97622606513,-87.655041217804
1043,"Sheridan & Winona",41.975093454948,-87.655014395714
1044,"Sheridan & Argyle",41.973143244444,-87.654960751534
1045,"Sheridan & Ainslie",41.97140036776,-87.654917836189
1046,"Sheridan & Gunnison",41.969920679874,-87.654874920845
1047,"Sheridan & Lawrence",41.968963451072,-87.654853463173
1048,"Sheridan & Leland",41.967068893328,-87.654832005501
1049,"Sheridan & Wilson",41.965202200279,-87.654821276665
1050,"Sheridan & Sunnyside",41.963383318545,-87.654799818993
1051,"Sheridan & Montrose",41.961843610532,-87.654772996902
1052,"Sheridan & Broadway/Montrose",41.96081046953,-87.654735445976
1053,"4242 N Sheridan",41.95929862297,-87.65469789505
1054,"Sheridan & Buena",41.958213581695,-87.654676437378
1055,"Sheridan & Cuyler",41.95633466138,-87.65461742878
1056,"Sheridan & Irving Park",41.954419781136,-87.654579877853
1057,"Sheridan & Sheffield",41.952648465688,-87.654166817665
1058,"Sheridan & Fremont",41.952700329227,-87.651726007462
1060,"Sheridan & Pine Grove",41.952831982637,-87.647686600685
1061,"Lake Shore & Grace",41.95207397443,-87.645074129105
1062,"Lake Shore & Waveland",41.950246738646,-87.644489407539
1063,"Lake Shore & Addison",41.948559092255,-87.643486261368
1064,"Lake Shore & Brompton",41.947561644305,-87.642912268639
1065,"Lake Shore & Cornelia",41.946616049237,-87.642349004745
1066,"Lake Shore & Stratford",41.94592579588,-87.641989588737
1067,"Lake Shore & Hawthorne",41.944676937001,-87.641286849976
1068,"Lake Shore & Roscoe",41.943571696438,-87.640686035156
1069,"Lake Shore & Aldine",41.942131263917,-87.639935016632
1070,"Lake Shore & Melrose",41.941273373131,-87.639656066895
1072,"Sheridan & Briar",41.938583910466,-87.639548778534
1073,"Sheridan & Barry",41.937538421069,-87.639511227608
1074,"Sheridan & Wellington",41.936417094688,-87.639457583427
1075,"Sheridan & Oakdale",41.935395513279,-87.639414668083
1076,"Sheridan & Surf",41.934182364101,-87.639371752739
1077,"Sheridan & Diversey",41.932993136261,-87.639371752739
1078,"Stockton & Wrightwood",41.931324987362,-87.639039158821
1079,"Stockton & Roslyn",41.928315823762,-87.63890504837
1080,"Stockton & Arlington",41.926539791898,-87.637783885002
1081,"Stockton & Fullerton",41.925522043489,-87.636040449142
1082,"Stockton & Webster",41.922149388604,-87.635761499405
1083,"Stockton & Dickens",41.920313312187,-87.635659575462
1084,"Stockton & Armitage",41.918776555443,-87.634581327438
1085,"Stockton & Lincoln",41.915722890008,-87.63307929039
1086,"Stockton & LaSalle",41.913655096329,-87.631754279137
1087,"Lake Shore & North Ave",41.910517350946,-87.626282572746
1088,"Lake Shore & Burton",41.909243845393,-87.62616455555
1089,"Lake Shore & Schiller",41.907567090873,-87.625751495361
1090,"Lake Shore & Banks",41.906636872349,-87.625515460968
1091,"Lake Shore & Goethe",41.905650746066,-87.625284790993
1092,"Lake Shore & Scott",41.904696544596,-87.625118494034
1093,"Lake Shore & Division",41.903822180101,-87.624979019165
1094,"Lake Shore & Elm",41.903295160101,-87.624823451042
1095,"Lake Shore & Cedar",41.902261070338,-87.624496221542
1096,"Lake Shore & Oak",41.900943479968,-87.624287009239
1097,"Michigan & Delaware",41.89942222818,-87.624249458313
1098,"Michigan & Pearson",41.897789138027,-87.624233365059
1100,"Michigan & Erie",41.894351127152,-87.624362111092
1101,"Michigan & Ohio",41.892717907321,-87.624335289001
1102,"Michigan & Illinois",41.891140552684,-87.624303102493
1103,"Michigan & Hubbard (Wrigley Bldg.)",41.890138213421,-87.624249458313
1104,"Michigan & South Water",41.886935414427,-87.624651789665
1105,"Michigan & Lake/Randolph",41.885106312544,-87.624635696411
1106,"Michigan & Washington",41.883428924177,-87.624565958977
1107,"Michigan & Madison/Monroe",41.881216301693,-87.624523043633
1108,"Adams & S. Wacker",41.879407006513,-87.637048959732
1110,"Michigan & Jackson",41.878428448039,-87.624458670616
1111,"Congress & Wabash",41.875764296593,-87.62581050396
1113,"State & Van Buren",41.876870711802,-87.627596855164
1115,"State & Adams",41.879403012427,-87.627666592598
1117,"State & Madison",41.88183536444,-87.627747058868
1119,"Michigan & Randolph",41.884682975825,-87.624356746674
1120,"Michigan & South Water",41.886699790703,-87.624415755272
1121,"Michigan & E. Wacker",41.888045629768,-87.62442111969
1122,"Michigan & Hubbard (Tribune Bldg.)",41.890178147557,-87.623981237411
1123,"Michigan & Grand",41.891675659635,-87.624045610428
1124,"Michigan & Ontario",41.893225048512,-87.624077796936
1125,"Michigan & Huron",41.894834296652,-87.624126076698
1126,"Michigan & Chicago",41.896495413493,-87.624136805534
1127,"Michigan & Chestnut",41.898096593399,-87.623970508575
1128,"Michigan & Delaware/Walton",41.899478127837,-87.624024152756
1129,"Michigan & Oak",41.900604096227,-87.624099254608
1130,"Lake Shore & Cedar",41.902404805825,-87.624453306198
1131,"Lake Shore & Elm",41.903267211949,-87.624716162682
1132,"Lake Shore & Division",41.904185501962,-87.624968290329
1133,"Lake Shore & Scott",41.904944079402,-87.625043392181
1134,"Lake Shore & Goethe",41.906073943827,-87.625268697739
1135,"Lake Shore & Banks",41.907036109428,-87.625526189804
1136,"Lake Shore & Schiller",41.908082098734,-87.625789046288
1137,"Lake Shore & Burton",41.909659034948,-87.626153826714
1138,"Lake Shore & North Ave",41.910521343086,-87.626207470894
1139,"Stockton & LaSalle",41.913794814229,-87.631668448448
1140,"Stockton & Lincoln",41.916014291839,-87.633229494095
1141,"Stockton & Armitage",41.918572982293,-87.634431123734
1142,"Stockton & Dickens",41.920249447709,-87.635563015938
1143,"Stockton & Webster",41.921917886227,-87.635648846626
1144,"Stockton & Fullerton",41.925494105068,-87.635927796364
1145,"Stockton & Arlington",41.926595667811,-87.637724876404
1146,"Stockton & Roslyn",41.928315823762,-87.638808488846
1147,"Stockton & Wrightwood",41.931261133906,-87.638931870461
1148,"Sheridan & Diversey",41.933021071397,-87.63928592205
1149,"Sheridan & Surf",41.934497625482,-87.639291286469
1150,"Sheridan & Oakdale",41.935790579905,-87.639344930649
1151,"Sheridan & Wellington",41.93676426902,-87.639382481575
1152,"Sheridan & Barry",41.937905541436,-87.639430761337
1153,"Sheridan & Briar",41.938723573782,-87.639462947845
1154,"Sheridan & Belmont",41.939996491053,-87.639484405518
1155,"Sheridan & Belmont",41.940371577816,-87.63950586319
1156,"Lake Shore & Aldine",41.942346732347,-87.639951109886
1157,"Lake Shore & Roscoe",41.943523815547,-87.640562653542
1158,"Lake Shore & Hawthorne",41.944812596977,-87.641265392303
1159,"Lake Shore & Stratford",41.946153221222,-87.642021775246
1160,"Lake Shore & Cornelia",41.946783624069,-87.642354369164
1161,"Lake Shore & Brompton",41.947781084193,-87.642944455147
1162,"Lake Shore & Addison",41.948806456932,-87.643539905548
1163,"Lake Shore & Waveland",41.950438241796,-87.644505500793
1164,"Lake Shore & W. Sheridan (3900 N)",41.95301948854,-87.64497756958
1165,"Sheridan & Pine Grove",41.952879856537,-87.648046016693
1166,"Sheridan & Broadway",41.952772140212,-87.650052309036
1167,"Sheridan & Fremont",41.952752192724,-87.652337551117
1168,"Sheridan & Byron",41.952915761938,-87.654456496239
1169,"Sheridan & Dakin",41.953809400966,-87.654483318329
1170,"Sheridan & Irving Park",41.954651165555,-87.654499411583
1171,"Sheridan & Belle Plaine",41.956717630525,-87.654547691345
1172,"Sheridan & Buena",41.958564626482,-87.654601335526
1173,"4225 N Sheridan",41.959210862966,-87.65461742878
1174,"Sheridan & Broadway/Montrose",41.961085709503,-87.654665708542
1175,"Sheridan & Montrose",41.961839621603,-87.654681801796
1176,"Sheridan & Sunnyside",41.963830066237,-87.654719352722
1177,"Sheridan & Wilson",41.965357760122,-87.654730081558
1178,"Sheridan & Leland",41.967172596894,-87.654740810394
1179,"Sheridan & Lawrence",41.969250621223,-87.654767632484
1180,"Sheridan & Gunnison",41.970283625367,-87.654789090157
1181,"Sheridan & Ainslie",41.971735386661,-87.654842734337
1182,"Sheridan & Argyle",41.973526112567,-87.654896378517
1183,"Sheridan & Winona",41.975420478266,-87.654944658279
1184,"Sheridan & Foster",41.976620878734,-87.654960751534
1185,"Sheridan & Berwyn ",41.978188144956,-87.654987573624
1186,"Sheridan & Balmoral",41.980086359774,-87.655046582222
1187,"Sheridan & Catalpa",41.981805072698,-87.655110955238
1188,"Sheridan & Bryn Mawr",41.983587540344,-87.655143141747
1189,"Sheridan & Hollywood",41.98540185773,-87.655207514763
1190,"Sheridan & Ardmore",41.987515173234,-87.655287981033
1191,"Sheridan & Thorndale",41.990262378512,-87.655336260796
1192,"Sheridan & Glenlake",41.99251906512,-87.655384540558
1198,"Sheridan & Granville",41.994799592918,-87.655513286591
1199,"Sheridan & Rosemont",41.996629537774,-87.655566930771
1200,"Sheridan & Kenmore",41.998284017786,-87.656983137131
1201,"Sheridan & Winthrop",41.998256111251,-87.658351063728
1203,"Sheridan & Arthur (Red Line)",42.00022548526,-87.660684585571
1204,"Sheridan & Loyola",42.00169649612,-87.660732865334
1206,"Sheridan & North Shore",42.003896969205,-87.660791873932
1208,"Sheridan & Pratt",42.005838265424,-87.660909891129
1209,"Sheridan & Farwell",42.006898578798,-87.661221027374
1210,"Sheridan & Morse",42.008146218144,-87.661634087563
1211,"Sheridan & Lunt",42.009349987546,-87.662068605423
1212,"Sheridan & Greenleaf",42.010593592939,-87.662470936775
1213,"Sheridan & Estes",42.011625926384,-87.662824988365
1214,"Sheridan & Touhy",42.012913330331,-87.663484811783
1215,"Sheridan & Chase",42.014069181644,-87.664107084274
1216,"Sheridan & Sherwin",42.015181170496,-87.664734721184
1217,"Sheridan & Jarvis",42.01627719783,-87.665104866028
1219,"Sheridan & Birchwood",42.0183297073,-87.665700316429
1220,"Howard & Sheridan",42.019262281948,-87.666247487068
1224,"Fullerton & Halsted",41.925482131455,-87.649354934692
1225,"Fullerton Red/Brown/Purple Line Station",41.925434236983,-87.652766704559
1226,"Fullerton & Seminary",41.925366386418,-87.656253576279
1227,"Fullerton & Racine",41.925326474288,-87.658356428146
1228,"Fullerton & Surrey Court",41.925294544565,-87.660303711891
1230,"Fullerton & Greenview",41.925218711411,-87.665496468544
1233,"Fullerton & Riverfront Mall (1800 W)",41.925142878166,-87.673199772835
1235,"Fullerton & Elston",41.925055071138,-87.677367925644
1236,"Fullerton & Damen",41.925055071138,-87.678226232529
1238,"Fullerton & Oakley",41.924999193876,-87.685103416443
1239,"Fullerton & Western",41.924935334087,-87.687442302704
1240,"Fullerton & Campbell",41.92492336037,-87.68998503685
1241,"Fullerton & Rockwell",41.924895421687,-87.692388296127
1242,"Fullerton & Washtenaw",41.92487945672,-87.694839835167
1243,"Fullerton & California",41.924847526774,-87.69725382328
1246,"Fullerton & Albany",41.92479164933,-87.704404592514
1248,"Fullerton & Kedzie",41.924739763088,-87.707725167274
1249,"Fullerton & Spaulding",41.924727789334,-87.710546851158
1250,"Fullerton & Kimball",41.924711824325,-87.711861133575
1251,"Fullerton & St. Louis",41.92467590304,-87.714232206345
1252,"Fullerton & Central Park",41.924651955505,-87.716860771179
1253,"Fullerton & Lawndale",41.924616034187,-87.719323039055
1255,"Fullerton & Hamlin",41.92459208663,-87.721946239471
1256,"Fullerton & Springfield",41.92456015654,-87.724204659462
1257,"Fullerton & Pulaski",41.924536208962,-87.726554274559
1258,"Fullerton & Karlov",41.924520243905,-87.729349136353
1259,"Fullerton & Keeler",41.924500287578,-87.731537818909
1260,"Fullerton & Tripp",41.924464366174,-87.732744812965
1261,"Fullerton & Kildare",41.924456383637,-87.73395717144
1262,"Fullerton & Kostner",41.924420462209,-87.736451625824
1263,"Fullerton & Kilbourn",41.924396514578,-87.738908529282
1264,"Fullerton & Kenton ",41.924360593116,-87.741263508797
1265,"Fullerton & Kilpatrick",41.924340636739,-87.743704319
1267,"Fullerton & Lamon",41.924236863479,-87.748650312424
1269,"Fullerton & Leclaire",41.924173002928,-87.753515839577
1270,"Fullerton & Laramie",41.924149055205,-87.755962014198
1271,"Fullerton & Lockwood",41.924109142313,-87.758461833
1272,"Fullerton & Long",41.924077211981,-87.760977745056
1273,"Fullerton & Linder",41.924045281634,-87.763423919678
1275,"Fullerton & Major",41.923981420891,-87.768225073814
1277,"Fullerton & Marmora",41.923897603568,-87.773203253746
1278,"Fullerton & Austin",41.923853699213,-87.775831818581
1279,"Fullerton & Meade",41.923817777445,-87.778052687645
1280,"Fullerton & Melvina",41.923773873034,-87.780590057373
1281,"Fullerton & Mobile",41.923745933848,-87.783036231995
1282,"Fullerton & Narragansett",41.923714003334,-87.785321474075
1283,"6450 W Fullerton",41.923690055439,-87.788175344467
1286,"6450 W Fullerton",41.92364615094,-87.786877155304
1287,"2500 N Narragansett",41.925541999496,-87.78547167778
1289,"2500 N Narragansett",41.92576550635,-87.785546779633
1291,"Fullerton & Mobile",41.923694046755,-87.783111333847
1292,"Fullerton & Melvina",41.923725977279,-87.78068125248
1293,"Fullerton & Meade",41.923753916474,-87.778277993202
1294,"Fullerton & Austin",41.923801812208,-87.775858640671
1295,"Fullerton & Marmora",41.923833742677,-87.773444652557
1296,"Fullerton & Menard",41.92388962096,-87.770955562592
1297,"Fullerton & Major",41.923917560083,-87.76856303215
1299,"Fullerton & Linder",41.923973438293,-87.763617038727
1301,"Fullerton & Lockwood",41.924041290339,-87.75876224041
1302,"Fullerton & Laramie",41.924081203274,-87.756262421608
1303,"Fullerton & Leclaire",41.924105151022,-87.753853797913
1304,"Fullerton & Lavergne",41.924141072628,-87.751391530037
1305,"Fullerton & Lamon",41.924161029068,-87.748897075653
1306,"Fullerton & Cicero",41.924216907064,-87.746504545212
1307,"Fullerton & Kilpatrick",41.924272785012,-87.743999361992
1308,"Fullerton & Kenton ",41.924296732688,-87.741649746895
1309,"Fullerton & Kilbourn",41.924324671633,-87.739149928093
1310,"Fullerton & Kostner",41.924356601841,-87.736703753471
1311,"Fullerton & Kildare",41.924388532033,-87.734236121178
1312,"Fullerton & Tripp",41.924404497123,-87.733013033867
1313,"Fullerton & Keeler",41.924424453479,-87.73177921772
1314,"Fullerton & Karlov",41.924456383637,-87.729349136353
1315,"Fullerton & Pulaski",41.92447234871,-87.726929783821
1316,"Fullerton & Springfield",41.924496296312,-87.724408507347
1317,"Fullerton & Hamlin",41.92452423517,-87.721994519234
1319,"Fullerton & Lawndale",41.924556165278,-87.719537615776
1320,"Fullerton & Central Park",41.924588095369,-87.717118263245
1321,"Fullerton & St. Louis",41.924604060409,-87.714650630951
1322,"Fullerton & Kimball",41.924647964249,-87.712231278419
1323,"Fullerton & Spaulding",41.924667920529,-87.710879445076
1324,"Fullerton & Kedzie",41.924679894295,-87.707666158676
1326,"Fullerton & Albany",41.92471980683,-87.704764008522
1327,"Fullerton & Sacramento",41.92475173684,-87.702462673187
1329,"Fullerton & California",41.924783666834,-87.697597146034
1330,"Fullerton & Washtenaw",41.924823579304,-87.695435285568
1331,"Fullerton & Rockwell",41.92482757055,-87.692903280258
1332,"Fullerton & Campbell",41.924863491749,-87.690162062645
1333,"Fullerton & Western",41.924871474235,-87.68786072731
1334,"Fullerton & Oakley",41.924927351609,-87.685312628746
1336,"Fullerton & Damen",41.924991211406,-87.678263783455
1337,"Fullerton & Elston",41.924995202641,-87.67702460289
1339,"Fullerton & Wood",41.925083009751,-87.672802805901
1340,"Fullerton & Clybourn",41.925134895714,-87.66940176487
1342,"Fullerton & Greenview",41.925146869391,-87.665952444077
1343,"Fullerton & Southport",41.925182790411,-87.663516998291
1344,"Fullerton & Lakewood",41.925226693852,-87.660684585571
1345,"Fullerton & Racine",41.925266606045,-87.658635377884
1346,"Fullerton & Seminary",41.925306518213,-87.656076550484
1348,"Fullerton & Halsted/Lincoln",41.925414280942,-87.64895260334
1349,"Halsted & Belden",41.923805803517,-87.648754119873
1350,"Webster & Halsted",41.921790160419,-87.64851808548
1351,"Webster & Orchard",41.921830074761,-87.646216750145
1352,"Lincoln & Webster",41.922177328489,-87.644151449203
1353,"Lincoln & Belden/Orchard",41.923518428591,-87.64601290226
1354,"Devon & Kedzie Terminal",41.997929205214,-87.709543704987
1355,"McCormick & Devon",41.997084025725,-87.711700201035
1356,"Lincoln & McCormick/Kimball",41.994050057831,-87.713502645493
1357,"Lincoln & Jersey",41.992562922194,-87.711088657379
1358,"Lincoln & Kedzie",41.991175429197,-87.708824872971
1359,"Lincoln & Peterson",41.990138776757,-87.707145810127
1360,"Lincoln & Whipple ",41.989094132991,-87.705187797546
1361,"Lincoln & Sacramento ",41.988340543447,-87.704012989998
1362,"Lincoln & Francisco",41.986833337596,-87.70144879818
1363,"Lincoln & California",41.985585280347,-87.699356675148
1364,"Lincoln & Washtenaw",41.984066046653,-87.69679248333
1365,"Lincoln & Bryn Mawr",41.983308410004,-87.695467472076
1367,"Lincoln & Balmoral",41.979408432406,-87.692736983299
1368,"Lincoln & Berwyn",41.977777389345,-87.692586779594
1370,"Lincoln & Carmen",41.974104398597,-87.692120075226
1371,"Lincoln & Winnemac",41.973071456415,-87.69148170948
1372,"Lincoln & Argyle",41.972010579439,-87.690784335136
1373,"Ainslie & Western",41.970371370121,-87.689207196236
1375,"Leland & Western (Brown Line)",41.966685986392,-87.6885420084
1376,"Lincoln & Leland ",41.966558350235,-87.687222361565
1377,"Lincoln & Wilson",41.965054617512,-87.686299681664
1378,"Lincoln & Sunnyside",41.963379329712,-87.685157060623
1379,"Lincoln & Montrose/Leavitt",41.961564384886,-87.683987617493
1380,"Lincoln & Cullom",41.959785289894,-87.682732343674
1381,"Lincoln & Berteau",41.957946307662,-87.681450247765
1382,"Lincoln & Belle Plaine",41.956155143801,-87.680194973946
1383,"Lincoln & Irving Park/Damen",41.954379887186,-87.678950428963
1384,"Lincoln & Byron",41.952504843359,-87.677641510963
1385,"Lincoln & Grace/Wolcott",41.950693578436,-87.67637014389
1386,"Lincoln & Waveland",41.948882262044,-87.675125598907
1387,"Lincoln & Addison",41.947298315442,-87.674036622047
1389,"Lincoln & Roscoe",41.943384162744,-87.671290040016
1390,"Lincoln & School/Marshfield",41.94160855044,-87.670040130615
1392,"Lincoln & Barry/Greenview",41.938049196656,-87.666413784027
1393,"Lincoln & Wellington/Southport",41.936237521017,-87.663892507553
1394,"Lincoln & George/Lakewood",41.934473681634,-87.661440968513
1395,"Lincoln & Diversey/Racine",41.932701811966,-87.658989429474
1396,"Lincoln & Schubert/Seminary",41.930917920483,-87.656473517418
1397,"Lincoln & Kenmore",41.92992817841,-87.655068039894
1398,"Lincoln & Wrightwood/Sheffield",41.92913397911,-87.653979063034
1399,"Sheffield & Altgeld",41.927330032406,-87.653737664223
1400,"Lincoln & Belden/Orchard",41.923833742677,-87.646565437317
1401,"Lincoln & Webster",41.922037628941,-87.644070982933
1402,"Lincoln & Dickens/Cleveland",41.920257430772,-87.641597986221
1403,"Lincoln & Armitage/Sedgwick",41.918517099354,-87.639119625092
1405,"Armitage & Clark",41.918377391792,-87.636287212372
1407,"1928 N Lincoln",41.91723976169,-87.63738155365
1408,"Lincoln & Wisconsin",41.916704868949,-87.636598348618
1409,"Clark & Menomonee",41.914936497603,-87.633991241455
1410,"LaSalle & Eugenie",41.91260919834,-87.633293867111
1411,"LaSalle & North Ave",41.910844705635,-87.633256316185
1412,"LaSalle & Burton",41.908976366077,-87.633208036423
1413,"LaSalle & Schiller",41.907519182954,-87.633154392242
1414,"LaSalle & Goethe",41.905570897117,-87.63310611248
1415,"LaSalle & Division",41.90364251468,-87.633036375046
1417,"LaSalle & Oak",41.900336580713,-87.632955908775
1418,"LaSalle & Delaware",41.899002979191,-87.632923722267
1419,"LaSalle & Chestnut",41.897920904796,-87.632891535759
1421,"Wacker (Upper) & Michigan",41.888361119096,-87.625054121017
1423,"State & Lake",41.885917034469,-87.628047466278
1425,"State & Washington",41.883444899512,-87.627907991409
1427,"State & Monroe",41.881016602753,-87.627811431885
1429,"State & Jackson",41.878320605984,-87.627725601196
1430,"State & Van Buren",41.876982550541,-87.627693414688
1431,"State & Harrison/Congress",41.874977412028,-87.627645134926
1437,"State & Randolph",41.884347499452,-87.627865076065
1438,"State & Lake",41.88563348265,-87.627881169319
1439,"State & E. Wacker",41.886695797074,-87.627854347229
1441,"Wacker (Upper) & Michigan",41.888177416639,-87.625333070755
1443,"LaSalle & Delaware",41.899322407242,-87.632660865784
1444,"LaSalle & Oak",41.900663987606,-87.632703781128
1445,"LaSalle & Maple",41.902045466502,-87.632762789726
1447,"LaSalle & Goethe",41.905922231744,-87.632864713669
1448,"LaSalle & Schiller",41.907918414515,-87.632923722267
1449,"LaSalle & Burton",41.909008303965,-87.632955908775
1450,"LaSalle & North Ave",41.911036327113,-87.633004188538
1451,"Clark & LaSalle",41.913347715874,-87.632939815521
1453,"Lincoln & Wisconsin",41.916369560765,-87.636013627052
1454,"1929 N Lincoln",41.917199844476,-87.637177705765
1455,"Lincoln & Armitage/Sedgwick",41.918177809031,-87.63852417469
1456,"Lincoln & Dickens/Cleveland",41.919914158149,-87.640970349312
1458,"Fullerton & Halsted/Lincoln",41.925482131455,-87.649430036545
1459,"Sheffield & Altgeld",41.927086575515,-87.653641104698
1460,"Lincoln & Wrightwood/Sheffield",41.929277654088,-87.654054164886
1461,"Lincoln & Kenmore",41.929968087662,-87.655009031296
1462,"Lincoln & Schubert/Seminary",41.930730349576,-87.65606045723
1463,"Lincoln & Diversey/Racine",41.93241048634,-87.658469080925
1464,"Lincoln & George/Lakewood",41.934224999999,-87.660973333334
1465,"Lincoln & Wellington/Southport",41.936113814415,-87.663549184799
1466,"Lincoln & Barry/Greenview",41.937785828505,-87.665947079659
1468,"Lincoln & School/Marshfield",41.941389089306,-87.669798731804
1469,"Lincoln & Roscoe",41.94316869782,-87.671054005623
1470,"Lincoln & Cornelia",41.945000126469,-87.672298550606
1471,"Lincoln & Addison/Ravenswood",41.946819532904,-87.673591375351
1472,"Lincoln & Waveland",41.948694743971,-87.67490029335
1473,"Lincoln & Grace/Wolcott",41.950438241796,-87.676091194153
1474,"Lincoln & Byron",41.952241534915,-87.677362561226
1475,"Lincoln & Irving Park/Damen",41.95402084051,-87.678628563881
1476,"Lincoln & Belle Plaine",41.955832010885,-87.679867744446
1477,"Lincoln & Berteau",41.957667064938,-87.681155204773
1478,"Lincoln & Cullom",41.959474142617,-87.682426571846
1479,"Lincoln & Montrose/Leavitt",41.961233301463,-87.683660387993
1480,"Lincoln & Sunnyside",41.963084155392,-87.684862017632
1481,"Lincoln & Wilson",41.964811304637,-87.686026096344
1482,"Lincoln & Leland ",41.966554361601,-87.687120437622
1484,"Western & Leland",41.966666043259,-87.688756585121
1486,"Ainslie & Western",41.970423219237,-87.689443230629
1487,"Lincoln & Argyle",41.971811164501,-87.690564393997
1488,"Lincoln & Winnemac",41.972907938935,-87.691283226013
1489,"Lincoln & Carmen",41.973932907425,-87.691910862923
1491,"Lincoln & Berwyn",41.97776542555,-87.692500948906
1492,"Lincoln & Balmoral",41.979587884471,-87.692667245865
1493,"Lincoln & Catalpa",41.981274709158,-87.692763805389
1494,"Lincoln & Bryn Mawr",41.982981427191,-87.694775462151
1495,"Lincoln & Washtenaw",41.984221560429,-87.696915864944
1497,"Lincoln & Francisco",41.987104477788,-87.701765298843
1498,"Lincoln & Richmond ",41.987937827916,-87.703165411949
1499,"Lincoln & Sacramento ",41.988695409476,-87.704431414604
1500,"Lincoln & Whipple ",41.989472918017,-87.705702781677
1502,"Lincoln & Peterson",41.99023845561,-87.706899046898
1503,"Lincoln & Kedzie",41.991430602592,-87.708851695061
1504,"Lincoln & Jersey",41.992997504298,-87.711383700371
1505,"Lincoln & McCormick/Kimball",41.994468682239,-87.713760137558
1507,"McCormick & Devon",41.997195653848,-87.711614370346
1510,"Stony Island & 62nd Street",41.78283704892,-87.586451768875
1511,"Stony Island & 61st Street",41.783929071227,-87.586494684219
1512,"Stony Island & 60th Street",41.786005062346,-87.586537599564
1513,"Stony Island & 59th Street",41.7880969854,-87.586585879326
1514,"5800 S Stony Island",41.789636885138,-87.586612701416
1515,"Stony Island & 57th Drive",41.791340731091,-87.586660981178
1517,"S Hyde Park & 56th Street",41.793336493052,-87.583871483803
1518,"S Hyde Park & 55th Street",41.795452172847,-87.583903670311
1519,"5440 S S Hyde Park",41.796775936972,-87.583925127983
1520,"S Hyde Park & 54th Street",41.798339623115,-87.583984136581
1521,"S Hyde Park & 53rd Street",41.799459374915,-87.584010958672
1522,"5200 S S Hyde Park",41.800831044205,-87.584461569786
1523,"E Hyde Park & East End",41.802510599267,-87.585695385933
1524,"E Hyde Park & Cornell",41.80250260149,-87.586698532104
1525,"E Hyde Park & Lake Park",41.802490604822,-87.588302493095
1527,"E Hyde Park & Dorchester",41.802438619238,-87.592143416405
1528,"E Hyde Park & Kenwood",41.802410626983,-87.593586444855
1529,"E Hyde Park & Kimbark",41.802382634716,-87.595324516296
1530,"E Hyde Park & Woodlawn",41.802382634716,-87.597105503082
1533,"E Hyde Park & Ellis ",41.802326650145,-87.602030038834
1535,"51st Street & Cottage Grove",41.80225466991,-87.606782913208
1536,"51st Street & Evans",41.802246672101,-87.607823610306
1537,"51st Street & Champlain",41.802210681949,-87.609862089157
1538,"51st Street & St. Lawrence",41.802186688502,-87.611165642738
1539,"51st Street & Forrestville",41.802170692867,-87.612689137459
1540,"51st Street & King Drive",41.80213070376,-87.615526914597
1541,"51st Street & King Drive",41.802126704848,-87.61655151844
1542,"51st Green Line Station",41.802094713543,-87.618482708931
1543,"51st Street & Indiana",41.802050725472,-87.620923519135
1544,"Indiana & 50th Street",41.803646273455,-87.620987892151
1545,"Indiana & 49th Street",41.805553680934,-87.621057629585
1546,"Indiana & 48th Street",41.807305086849,-87.621095180511
1547,"Indiana & 47th Street",41.809176399163,-87.621143460274
1548,"Indiana & 46th Street",41.810991679815,-87.621197104454
1549,"Indiana & 45th Street",41.812710951061,-87.621245384216
1550,"Indiana & 44th Street",41.814642077455,-87.621299028397
1551,"Indiana & 43rd Street",41.816433215107,-87.621352672577
1552,"Indiana & 42nd Street",41.818272277538,-87.621400952339
1554,"Indiana Green Line Station",41.82170638534,-87.621497511864
1555,"Indiana & Pershing",41.823617252654,-87.621551156044
1556,"Indiana & 38th Street",41.825464103687,-87.621594071388
1557,"Indiana & 37th Street",41.82728292006,-87.621626257896
1558,"Indiana & 36th Street",41.829733243716,-87.621679902077
1560,"Indiana & 34th Street",41.832978878774,-87.621755003929
1562,"Indiana & 32nd Street",41.836400207496,-87.621819376945
1563,"Indiana & 31st Street",41.838238696449,-87.621856927872
1564,"3000 S Michigan",41.840592684542,-87.623230218887
1565,"Michigan & 29th Street",41.841887540906,-87.623273134232
1566,"Michigan & 28th Street",41.843629960584,-87.62330532074
1567,"Michigan & 26th Street",41.845927803893,-87.623369693756
1568,"Michigan & 25th Street",41.847294481991,-87.623487710953
1570,"Michigan & 23rd Street",41.85103871072,-87.62371301651
1573,"Michigan & 21st Street",41.854554969306,-87.623820304871
1574,"Michigan & Cullerton",41.855713693993,-87.623841762543
1575,"Michigan & 18th Street",41.858114984183,-87.623900771141
1577,"1509 S Michigan",41.861838603628,-87.623975872993
1578,"Michigan & 14th Street",41.863975991082,-87.624029517174
1579,"Michigan & 13th Street",41.865953510231,-87.624088525772
1580,"Michigan & Roosevelt",41.867815118829,-87.623997330666
1581,"Michigan & 11th Street",41.86931714977,-87.62398660183
1582,"Michigan & 9th Street",41.870519548042,-87.624008059502
1583,"Michigan & 8th Street",41.871793825843,-87.624050974846
1584,"Michigan & Balbo",41.873391630449,-87.624072432518
1586,"Michigan & Harrison",41.874569985756,-87.624362111092
1587,"Michigan & Balbo",41.873279785427,-87.624335289001
1588,"Michigan & 8th Street",41.871981569955,-87.624319195747
1589,"Michigan & 9th Street",41.870279869128,-87.624254822731
1590,"Michigan & 11th Street",41.86908545581,-87.624244093895
1591,"Michigan & Roosevelt",41.86719192542,-87.624228000641
1592,"Michigan & 13th Street",41.865589970895,-87.624163627625
1594,"1510 S Michigan",41.861782671034,-87.624061703682
1595,"Michigan & 16th Street",41.85992488209,-87.62401342392
1596,"Michigan & 18th Street",41.857635532448,-87.623975872993
1597,"Michigan & Cullerton",41.855314136127,-87.623922228813
1598,"Michigan & 21st Street",41.854015555825,-87.623884677887
1599,"Michigan & Cermak",41.852517161176,-87.623836398125
1602,"Michigan & 25th Street",41.847158614715,-87.623761296272
1603,"Michigan & 26th Street",41.845524188695,-87.623664736748
1604,"Michigan & 28th Street",41.843250308963,-87.623600363731
1605,"Michigan & 29th Street",41.842043401479,-87.623578906059
1606,"3000 S Michigan",41.840472789109,-87.623535990715
1607,"Michigan & 31st Street",41.838222709816,-87.623498439789
1608,"Michigan & 32nd Street",41.836224349264,-87.623428702354
1609,"Michigan & 33rd Street",41.83459364082,-87.623369693756
1610,"Michigan & 34th Street",41.832751050156,-87.62330532074
1611,"Michigan & 35th Street",41.830932389137,-87.623273134232
1612,"Michigan & 36th Street",41.829433453851,-87.623257040977
1613,"Michigan & 37th Street",41.82724294663,-87.623208761215
1614,"3806 S Michigan",41.825228253384,-87.623165845871
1615,"Michigan & Pershing",41.823553291491,-87.623224854469
1616,"4016 S Michigan",41.821462525785,-87.623176574707
1617,"Michigan & 41st Street",41.820031331316,-87.623139023781
1618,"Michigan & 42nd Street",41.818208311035,-87.623090744019
1619,"Michigan & 43rd Street",41.816341260599,-87.62303173542
1620,"Michigan & 44th Street",41.814466159449,-87.622988820076
1621,"Michigan & 45th Street",41.812894870369,-87.622945904732
1622,"Michigan & 46th Street",41.810875727303,-87.622892260551
1623,"Michigan & 47th Street",41.809088432714,-87.622838616371
1624,"Michigan & 48th Street",41.807241109393,-87.622817158699
1625,"Michigan & 49th Street",41.805369740548,-87.622752785683
1626,"Michigan & 50th Street",41.803578293524,-87.62270450592
1627,"51st Street & Michigan",41.801958750317,-87.622511386871
1628,"51st Street & Indiana",41.80199074169,-87.62112736702
1629,"51st Green Line Station",41.802030730884,-87.618713378906
1631,"51st Street & King Drive",41.802074718969,-87.615752220154
1632,"51st Street & Forrestville",41.802110709197,-87.612512111664
1633,"51st Street & St. Lawrence",41.80213070376,-87.611428499222
1634,"51st Street & Champlain",41.802142700495,-87.610012292862
1635,"51st Street & Evans",41.802182689594,-87.607898712158
1636,"51st Street & Cottage Grove",41.802210681949,-87.606525421143
1637,"51st Street & Drexel Square",41.802238674291,-87.604368925095
1638,"E Hyde Park & Drexel",41.80225466991,-87.603548169136
1639,"E Hyde Park & Ellis ",41.802274664428,-87.601101994514
1642,"E Hyde Park & Woodlawn",41.802318652345,-87.596456408501
1643,"E Hyde Park & Kimbark",41.802326650145,-87.594884634018
1644,"E Hyde Park & Kenwood",41.802354642436,-87.593243122101
1645,"E Hyde Park & Dorchester",41.802382634716,-87.591644525528
1646,"E Hyde Park & Blackstone",41.802390632508,-87.590185403824
1647,"E Hyde Park & Lake Park",41.802426622559,-87.58809864521
1648,"E Hyde Park & Cornell",41.802454614807,-87.586258649826
1649,"S Hyde Park & E. Hyde Park Blvd.",41.802218679762,-87.585126757622
1650,"5200 S S Hyde Park",41.801018996602,-87.584627866745
1651,"S Hyde Park & 53rd Street",41.799415385035,-87.584091424942
1652,"S Hyde Park & 54th Street",41.797899715269,-87.584053874016
1653,"5440 S S Hyde Park",41.796783935464,-87.58401632309
1654,"S Hyde Park & 55th Street",41.794992248397,-87.583978772163
1655,"S Hyde Park & 56th Street",41.793544464671,-87.583951950073
1656,"Stony Island & 57th Street",41.791300735226,-87.586752176285
1658,"Stony Island & 59th Street",41.788048987931,-87.586677074432
1659,"Stony Island & 60th Street",41.785981062833,-87.586623430252
1660,"Stony Island & 61st Street",41.7839610716,-87.586585879326
1661,"Stony Island & 62nd Street",41.782993053245,-87.586542963982
1662,"Western Brown Line Station",41.966031848386,-87.688563466072
1664,"Western & Winnemac",41.972895974225,-87.688933610916
1665,"Western & Carmen",41.974160232833,-87.688987255096
1668,"Western & Balmoral",41.979536042815,-87.689185738564
1669,"Western & Catalpa",41.981370414184,-87.689266204834
1670,"Western & Bryn Mawr",41.983459938055,-87.689362764359
1671,"Western & Hollywood",41.984995136131,-87.689394950867
1672,"Western & Ardmore",41.986877198587,-87.689437866211
1673,"Western & Thorndale",41.98868743498,-87.689512968063
1675,"Western & Glenlake",41.992160233376,-87.689593434334
1676,"Western & Granville",41.99399025412,-87.68965780735
1677,"Western & Rosemont",41.995820222246,-87.689700722694
1678,"Western & Devon",41.997586350736,-87.689781188965
1679,"Western & Arthur",41.999424188615,-87.689818739891
1680,"Western & Albion",42.001421431633,-87.689867019653
1681,"Western & North Shore",42.003295035759,-87.689899206161
1682,"Western & Pratt",42.004901507703,-87.68993139267
1683,"Western & Morse",42.007065995083,-87.689995765686
1684,"Western & Lunt",42.008536847798,-87.690044045448
1686,"Western & Estes",42.010840716756,-87.690097689629
1687,"Western & Touhy",42.01216799438,-87.690129876137
1688,"Western & Chase",42.014021353731,-87.690103054047
1689,"Western & Jarvis",42.015822846972,-87.690086960793
1690,"Western & Birchwood",42.017660158093,-87.690076231956
1691,"Western & Birchwood Terminal",42.01822608705,-87.689754366875
1692,"Western & Fargo",42.016910892288,-87.690280079842
1693,"Western & Jarvis",42.016018138528,-87.690290808678
1694,"Western & Chase",42.014009396747,-87.690317630768
1695,"Western & Touhy",42.012439026646,-87.690328359604
1696,"Western & Estes",42.011055952847,-87.690306901932
1698,"Western & Lunt",42.008779993616,-87.690258622169
1699,"Western & Morse",42.007229424842,-87.690215706825
1700,"Western & Pratt",42.005148653633,-87.690167427063
1701,"Western & North Shore",42.003310981089,-87.690119147301
1702,"Western & Albion",42.001485214809,-87.690070867538
1703,"Western & Arthur",41.99966736926,-87.690027952194
1704,"Western & Devon",41.997761764886,-87.690001130104
1705,"Western & Rosemont",41.996039495942,-87.689926028252
1706,"Western & Granville",41.994217507925,-87.689867019653
1707,"Western & Glenlake",41.992391480732,-87.689818739891
1708,"Western & Peterson",41.990665079336,-87.689791917801
1709,"Western & Thorndale",41.988763192649,-87.689722180367
1710,"Western & Ardmore",41.986960933124,-87.689652442932
1711,"Western & Hollywood",41.985118747872,-87.689593434334
1713,"Western & Catalpa",41.98151795915,-87.689480781555
1714,"Western & Balmoral",41.979695555467,-87.689400315285
1715,"Western & Berwyn",41.978379564142,-87.689352035522
1717,"Western & Foster",41.976006723182,-87.689244747162
1718,"Western & Carmen",41.974180173619,-87.6891964674
1719,"Western & Winnemac",41.973135268,-87.689153552055
1720,"Western & Ainslie",41.970554836034,-87.689056992531
1721,"Devon & Kedzie",41.99735113555,-87.709050178528
1722,"Devon & Albany",41.997391002592,-87.707054615021
1724,"Devon & Francisco",41.997486683391,-87.702258825302
1725,"Devon & California",41.997522563653,-87.699828743935
1726,"Devon & Washtenaw",41.99756641728,-87.697366476059
1728,"Devon & Campbell",41.997662097815,-87.692425847054
1736,"Devon & Hermitage",41.997996978555,-87.673612833023
1738,"Devon & Clark",41.998032858529,-87.670866250992
1739,"Devon & Clark",41.998056778501,-87.67016351223
1740,"Devon & Greenview",41.998072725144,-87.668033838272
1741,"Devon & Glenwood",41.998108605076,-87.665614485741
1743,"Devon & Lakewood",41.998120565049,-87.663189768791
1744,"Devon & Magnolia",41.998140498332,-87.661628723145
1746,"Pratt & Sheridan",42.005559232651,-87.66117811203
1747,"Pratt & Lakewood",42.005519370727,-87.663903236389
1748,"Pratt & Glenwood",42.005479508777,-87.66613483429
1749,"Pratt & Greenview",42.0054476192,-87.667829990387
1750,"Pratt & Ashland",42.005423702006,-87.669745087624
1751,"Ashland & Farwell",42.006691300881,-87.669943571091
1752,"Ashland & Morse",42.007803418717,-87.669975757599
1753,"Morse & Greenview",42.007847265258,-87.667942643166
1754,"Morse & Glenwood (Red Line)",42.007879153633,-87.665973901749
1755,"Morse & Lakewood",42.007915028035,-87.663817405701
1756,"Morse & Sheridan",42.007954888459,-87.661719918251
1757,"Devon & Sheridan",41.998216244751,-87.661108374596
1758,"Devon & Lakewood",41.998184351533,-87.662910819054
1760,"Devon & Glenwood",41.998168404918,-87.665228247643
1761,"Devon & Greenview",41.998144484988,-87.66773879528
1762,"Devon & Clark",41.998116578392,-87.670158147812
1764,"Devon & Hermitage",41.998056778501,-87.673500180244
1766,"Devon & Ridge",41.99799299189,-87.676686644554
1772,"Devon & Campbell",41.997721898076,-87.692211270332
1774,"Devon & Washtenaw",41.997634191007,-87.697055339813
1776,"Devon & Francisco",41.997554457203,-87.701969146729
1778,"Devon & Albany",41.997450803108,-87.706813216209
1779,"Devon & Kedzie",41.997418909506,-87.709189653397
1781,"Clark & Chase",42.013758299563,-87.674830555916
1784,"Clark & Greenleaf",42.010314581024,-87.674288749695
1785,"Clark & Lunt",42.008887615238,-87.673977613449
1790,"Clark & Albion",42.001836021129,-87.671939134598
1791,"Clark & Arthur",42.000504541424,-87.671477794647
1792,"Clark & Devon",41.998280031139,-87.670807242393
1793,"Clark & Rosemont",41.996270729204,-87.670356631279
1794,"Clark & Granville",41.994572341191,-87.670297622681
1795,"Clark & Glenlake",41.992981556384,-87.6702439785
1799,"Clark & Edgewater",41.986055796815,-87.669407129288
1802,"Clark & Bryn Mawr",41.983655328957,-87.668843865395
1803,"Clark & Catalpa",41.981777158938,-87.668511271477
1805,"Clark & Berwyn",41.978092435148,-87.66839325428
1806,"Clark & Foster",41.976269933429,-87.668457627296
1811,"Clark & Leland",41.967160631106,-87.667180895805
1813,"Clark & Sunnyside",41.96355882694,-87.666392326355
1814,"Clark & Montrose",41.961815688022,-87.666032910347
1815,"Clark & Cullom",41.959924906768,-87.665389180183
1818,"Clark & Irving Park",41.954519515902,-87.662369012833
1819,"3930 N Clark",41.953534129565,-87.661623358727
1820,"Clark & Byron",41.952696339726,-87.660968899727
1822,"Clark & Waveland",41.949093717933,-87.658072113991
1823,"Clark & Addison",41.947382102016,-87.656704187393
1824,"Clark & Cornelia",41.945674430085,-87.655341625214
1825,"Clark & Newport/Sheffield",41.944621076927,-87.654435038567
1826,"Clark & Roscoe",41.943635537569,-87.653710842133
1827,"Clark & School/Aldine",41.941863922445,-87.65224635601
1828,"Clark & Belmont",41.940096248386,-87.650835514069
1830,"Clark & Wellington",41.936636572934,-87.648072838783
1831,"Clark & Surf",41.934940585041,-87.646661996841
1832,"Clark & Diversey",41.933184691237,-87.645192146301
1833,"Clark & Schubert",41.931903656396,-87.644661068916
1836,"Clark & Deming",41.927804970224,-87.641876935959
1837,"Clark & Arlington",41.927050655567,-87.641394138336
1838,"Clark & Fullerton",41.925693664947,-87.640584111214
1839,"Clark & Belden",41.92388962096,-87.63950586319
1840,"Clark & Webster",41.922177328489,-87.638454437256
1841,"Clark & Dickens",41.920289363015,-87.637311816216
1843,"Clark & Wisconsin",41.916732811218,-87.635090947151
1845,"Clark & W. LaSalle Drive",41.913623160767,-87.633240222931
1846,"Clark & North Ave",41.911319766161,-87.631775736809
1847,"Clark & Burton",41.909531284603,-87.631679177284
1848,"Clark & Schiller",41.907958337534,-87.631630897522
1849,"Clark & Goethe",41.905910254459,-87.631539702415
1850,"Clark & Division (Red Line)",41.904177516888,-87.631480693817
1851,"Clark & Elm",41.90327918973,-87.631459236145
1852,"Clark & Maple",41.901997554439,-87.631421685219
1853,"Clark & Oak",41.900683951387,-87.631405591965
1854,"Clark & Delaware",41.899370321312,-87.63136267662
1855,"Clark & Chestnut",41.898084614646,-87.631330490112
1856,"Clark & Chicago",41.89687474902,-87.631287574768
1857,"Clark & Huron",41.894950097063,-87.63122856617
1858,"Clark & Ontario",41.893356824697,-87.63120174408
1859,"Clark & Grand",41.891747539332,-87.631153464317
1860,"Clark & Hubbard",41.890142206836,-87.631115913391
1861,"Clark & Kinzie",41.889307577733,-87.631105184555
1862,"320 N Clark",41.888045629768,-87.631072998047
1864,"Clark & Lake",41.885473734593,-87.631024718285
1865,"Clark & Randolph",41.884275611429,-87.630987167358
1869,"Clark & Adams",41.879071502438,-87.630826234818
1871,"Clark & Van Buren",41.876623068185,-87.630767226219
1873,"Clark & Harrison",41.874633895931,-87.630718946457
1875,"Dearborn & Polk",41.872504853825,-87.62910425663
1876,"Dearborn & Harrison",41.874809648583,-87.62915790081
1877,"Dearborn & Congress",41.875916080319,-87.629168629646
1880,"Dearborn & Adams",41.87955478751,-87.629302740097
1881,"Dearborn & Monroe",41.88097666289,-87.629351019859
1882,"Dearborn & Madison",41.882106951365,-87.629383206367
1884,"Dearborn & Randolph",41.884730900878,-87.629442214966
1885,"Dearborn & Wacker/Lake",41.886180616721,-87.629474401474
1887,"Dearborn & Marina City",41.888125500631,-87.629501223564
1891,"Dearborn & Ontario",41.89311723143,-87.629667520523
1892,"Dearborn & Huron",41.894742454797,-87.629688978195
1893,"Dearborn & Chicago",41.896507392544,-87.629726529121
1894,"Dearborn & Chestnut",41.897896947222,-87.62975871563
1895,"Dearborn & Delaware",41.89903092921,-87.629790902138
1896,"Walton & Dearborn",41.899845467224,-87.630005478859
1897,"Clark & Oak",41.900464349456,-87.631319761276
1898,"Clark & Maple",41.901765978963,-87.631346583366
1899,"Clark & Division (Red Line)",41.903782254496,-87.631389498711
1900,"Clark & Goethe",41.90568667806,-87.631432414055
1901,"Clark & Schiller",41.907726783678,-87.631539702415
1902,"Clark & Burton",41.909339658607,-87.63158261776
1903,"Clark & North Ave",41.911080240287,-87.63166308403
1905,"Clark & Lincoln",41.915503339804,-87.634243369102
1906,"Clark & Wisconsin",41.916545198605,-87.63487637043
1907,"Clark & Armitage",41.918377391792,-87.63599216938
1908,"Clark & Dickens",41.920025921532,-87.63705432415
1909,"Clark & Webster",41.921814109027,-87.63814330101
1910,"Clark & Belden",41.923634176981,-87.639248371124
1911,"Clark & Fullerton",41.925450201811,-87.640331983566
1913,"Clark & Deming",41.928631114139,-87.642225623131
1916,"Clark & Schubert",41.931775950578,-87.644489407539
1917,"Clark & Diversey",41.933248542767,-87.645138502121
1918,"Clark & Surf",41.934705138451,-87.64636695385
1921,"Clark & Belmont",41.9397889953,-87.650481462479
1922,"Clark & School/Aldine",41.941636481803,-87.651962041855
1923,"Clark & Roscoe",41.943459974304,-87.653458714485
1925,"Clark & Cornelia",41.945806098006,-87.65535235405
1926,"Clark & Addison",41.947086853598,-87.656360864639
1927,"Clark & Waveland",41.948834385142,-87.657766342163
1929,"Clark & Byron",41.952552717505,-87.660748958588
1931,"Clark & Belle Plaine",41.956398489731,-87.663441896439
1933,"Clark & Cullom",41.959705508686,-87.665212154388
1935,"Clark & Sunnyside",41.963351407875,-87.666274309158
1936,"Clark & Wilson",41.965226132587,-87.666665911674
1937,"Clark & Leland",41.966985,-87.66706
1939,"Clark & Ainslie",41.971787234666,-87.667792439461
1942,"Clark & Foster",41.976086483978,-87.668371796608
1943,"Clark & Berwyn",41.977905003023,-87.668291330338
1945,"Clark & Catalpa",41.981565811498,-87.668403983116
1948,"Clark & Hollywood",41.985314133684,-87.66910135746
1950,"Clark & Ardmore",41.988093332235,-87.669621706009
1951,"Clark & Ridge",41.989413110005,-87.669798731804
1952,"Clark & Elmdale/Peterson",41.990689002077,-87.669857740402
1953,"Clark & Glenlake",41.992550961177,-87.669900655746
1955,"Clark & Rosemont",41.99629863661,-87.670050859451
1956,"Clark & Devon",41.997929205214,-87.670404911041
1957,"Clark & Arthur",42.000660015042,-87.671450972557
1958,"Clark & Albion",42.001608794529,-87.671767473221
1959,"Clark & North Shore",42.003422598289,-87.672384381294
1963,"Clark & Lunt",42.008903559167,-87.673881053925
1967,"Clark & Chase",42.01382207037,-87.674760818481
1968,"Clark & Jarvis",42.015950384383,-87.675120234489
1970,"Division & Austin Terminal",41.9017859424,-87.775000333786
1971,"Division & Mayfield",41.902001547112,-87.773095965385
1972,"Division & Menard",41.902041473831,-87.770671248436
1973,"Division & Waller",41.902081400525,-87.768187522888
1974,"Division & Central",41.902109349196,-87.765784263611
1975,"Division & Pine",41.902129312525,-87.763944268227
1976,"Division & Long",41.902173231826,-87.761047482491
1977,"Division & Lockwood",41.902185209812,-87.758343815804
1979,"Division & Leclaire",41.902245099709,-87.75342464447
1981,"Division & Lamon",41.902293011585,-87.748591303825
1983,"4659 W Division",41.902364879333,-87.74324297905
1984,"Division & Kolmar",41.902420776414,-87.739986777306
1985,"Division & Kilbourn",41.902436747,-87.738672494888
1986,"Division & Kostner",41.902496636661,-87.736253142357
1987,"Division & Kildare",41.90253656307,-87.733839154243
1989,"Division & Karlov",41.902600445272,-87.728871703148
1990,"Division & Pulaski",41.902652349515,-87.726409435272
1991,"Division & Springfield",41.902656342147,-87.723979353905
1992,"Division & Hamlin",41.902684290567,-87.721527814865
1993,"Division & Grand/Monticello",41.902704253716,-87.717933654785
1994,"Division & Central Park",41.902724216858,-87.716656923294
1995,"3450 W Division",41.902736194741,-87.713164687157
1996,"Division & Homan",41.902756157874,-87.711737751961
1997,"Division & Spaulding",41.902772128376,-87.709500789642
2000,"Division & Richmond",41.902859966064,-87.700687050819
2001,"Division & Francisco",41.902867951302,-87.699458599091
2003,"Division & Washtenaw",41.902919855328,-87.694517970085
2004,"Division & Rockwell",41.902935825788,-87.691690921783
2005,"Division & Campbell",41.902951796245,-87.689614892006
2007,"Division & Oakley",41.903015678033,-87.684722542763
2009,"Division & Hoyne",41.903111500594,-87.67983019352
2011,"Division & Wolcott",41.903191352618,-87.674921751022
2013,"Division & Paulina",41.903267211949,-87.670474648476
2014,"Division & Ashland (Blue Line)",41.90332310824,-87.667722702026
2020,"Division & Elston",41.903442885843,-87.658420801163
2022,"Division & Cherry",41.903510759717,-87.654258012772
2028,"Division & Larrabee",41.903682440373,-87.643668651581
2029,"Division & Cleveland",41.903710388343,-87.64130294323
2030,"Division & Clybourn",41.903738336301,-87.638958692551
2032,"311 W Division",41.903790239619,-87.636029720306
2033,"Division & Wells",41.903822180101,-87.634672522545
2034,"Division & LaSalle",41.903834157778,-87.633326053619
2041,"300 W Division",41.903842142894,-87.636560797691
2042,"Division & Sedgwick",41.903814194982,-87.638272047043
2043,"Division & Clybourn",41.903798224741,-87.640031576157
2048,"Division & Halsted",41.903678447805,-87.648083567619
2051,"Division & Cherry",41.903570648371,-87.65401661396
2053,"Division & Elston",41.9034947894,-87.658914327621
2055,"Division & Noble",41.903466841336,-87.662428021431
2056,"Division & Cleaver",41.903446878425,-87.66371011734
2059,"Division & Ashland (Blue Line)",41.903398967415,-87.667298913002
2060,"Division & Paulina",41.903335086011,-87.670297622681
2061,"Division & Wood",41.903299152693,-87.672207355499
2062,"Division & Wolcott",41.903271204543,-87.674637436867
2063,"Division & Damen",41.903207323011,-87.67697095871
2064,"Division & Hoyne",41.903179374821,-87.679492235184
2065,"Division & Leavitt",41.903135456212,-87.681916952133
2066,"Division & Oakley",41.903095530177,-87.684368491173
2068,"Division & Campbell",41.903023663252,-87.689309120178
2069,"Division & Rockwell",41.902999707592,-87.691744565964
2070,"Division & Washtenaw",41.902987729759,-87.694298028946
2072,"Division & Francisco",41.902927840559,-87.699426412582
2073,"Division & Richmond",41.902915862712,-87.700628042221
2074,"Division & Humboldt",41.902911870096,-87.702140808105
2075,"Division & Kedzie",41.902903884863,-87.706673741341
2076,"Division & Spaulding",41.902840002964,-87.709055542946
2078,"3450 W Division",41.902800076744,-87.713186144829
2079,"Division & Central Park",41.902784106249,-87.71666765213
2081,"Division & Hamlin",41.902744179995,-87.721554636955
2082,"Division & Springfield",41.902724216858,-87.723990082741
2083,"Division & Pulaski",41.902708246345,-87.726420164108
2084,"Division & Karlov",41.902664327411,-87.728898525238
2085,"Division & Keeler",41.902628393716,-87.731114029884
2086,"Division & Kildare",41.902596452637,-87.73384988308
2087,"Division & Kostner",41.902560518903,-87.735840082169
2089,"Division & Kolmar",41.902488651376,-87.739820480347
2090,"4659 W Division",41.902420776414,-87.743747234344
2092,"Division & Lamon",41.902352901381,-87.74871468544
2093,"Division & Lavergne",41.902328945469,-87.750597596169
2094,"Division & Leclaire",41.902304989549,-87.753440737724
2096,"Division & Lockwood",41.902245099709,-87.758359909058
2097,"Division & Long",41.902225136416,-87.761047482491
2098,"Division & Pine",41.902189202474,-87.763949632645
2099,"Division & Central",41.902169239163,-87.765784263611
2100,"Division & Waller",41.902141290519,-87.768214344978
2101,"Division & Menard",41.902105356529,-87.77063369751
2102,"Division & Mayfield",41.902057444512,-87.773042321205
2103,"Chicago State University",41.721089562521,-87.60890185833
2104,"95th Street & Eberhart",41.722022479717,-87.611541152
2105,"95th Street & King Drive",41.721998456268,-87.613976597786
2106,"King Drive & 94th Street",41.723784174822,-87.614132165909
2107,"King Drive & 93rd Street",41.725641910062,-87.614175081253
2108,"King Drive & Burnside",41.727051190621,-87.614196538925
2109,"King Drive & 91st Street",41.729285157255,-87.614298462868
2110,"King Drive & 90th Street",41.731134726758,-87.614325284958
2111,"King Drive & 89th Street",41.732944210753,-87.614352107048
2112,"King Drive & 88th Street",41.734773659342,-87.614416480064
2113,"King Drive & 87th Street",41.736683115749,-87.614486217499
2114,"King Drive & 86th Street",41.738584509637,-87.614523768425
2115,"King Drive & 85th Street",41.740221664744,-87.614577412605
2116,"King Drive & 84th Street",41.742118951212,-87.614625692368
2117,"King Drive & 83rd Street",41.743908113041,-87.614690065384
2118,"King Drive & 82nd Street",41.745733246894,-87.6147544384
2119,"King Drive & 81st Street",41.747602354324,-87.614802718163
2120,"King Drive & 80th Street",41.749387361155,-87.614856362343
2121,"King Drive & 79th Street",41.751220343423,-87.614899277687
2122,"King Drive & 78th Street",41.753033263483,-87.614936828613
2123,"King Drive & 77th Street",41.754898156518,-87.614969015121
2124,"King Drive & 76th Street",41.756746988399,-87.615006566048
2125,"King Drive & 75th Street",41.758571757251,-87.615060210228
2126,"King Drive & 74th Street",41.760396474219,-87.615076303482
2128,"King Drive & 72nd Street",41.764025746058,-87.615178227425
2129,"King Drive & 71st Street",41.765918327883,-87.615215778351
2130,"King Drive & 70th Street",41.767646810498,-87.615253329277
2131,"King Drive & 69th Street",41.769441262276,-87.615320384502
2132,"King Drive & Anthony",41.770483501636,-87.615349888802
2133,"King Drive & Marquette Rd/S. Chicago",41.772619939368,-87.615430355072
2134,"King Drive & Marquette Rd",41.773108029389,-87.615441083908
2135,"King Drive & 66th Street",41.77502034631,-87.615510821342
2136,"King Drive & 65th Street",41.776712579213,-87.615537643433
2137,"King Drive & 64th Street",41.778300757183,-87.615521550179
2138,"King Drive & 63rd Street (Green Line)",41.780164915908,-87.615575194359
2139,"King Drive & 62nd Street",41.78222902844,-87.615623474121
2140,"King Drive & 61st Street",41.783781069293,-87.615666389465
2141,"King Drive & 60th Street",41.78562906894,-87.615687847137
2142,"King Drive & 59th Street",41.787665006882,-87.61576294899
2143,"King Drive & 58th Street",41.789372904953,-87.615838050842
2145,"King Drive & 56th Street",41.793112522861,-87.615880966187
2146,"King Drive & Garfield ",41.794372345004,-87.615907788277
2147,"King Drive & Garfield",41.79505223873,-87.615934610367
2148,"King Drive & 54th Street",41.796811930177,-87.615966796875
2149,"King Drive & 53rd Street",41.798451599176,-87.616020441055
2150,"5200 S King Drive",41.800243189533,-87.6160633564
2151,"King Drive & 51st Street",41.802310654544,-87.616127729416
2152,"King Drive & 50th Street",41.80407914397,-87.616428136826
2153,"King Drive & 49th Street",41.805869577321,-87.616481781006
2154,"King Drive & 48th Street",41.807773919692,-87.616513967514
2155,"King Drive & 47th Street",41.809602235035,-87.616560906172
2156,"King Drive & 46th Street",41.811397511956,-87.616610527039
2157,"King Drive & 45th Street",41.813206732336,-87.616674900055
2158,"King Drive & 44th Street",41.81496992336,-87.616701722145
2159,"King Drive & 43rd Street",41.816785039831,-87.616755366325
2160,"King Drive & 42nd Street",41.818616096394,-87.61682510376
2161,"King Drive & 41st Street",41.820411120676,-87.616830468178
2162,"King Drive & Oakwood Boulevard",41.822561885288,-87.61690557003
2163,"King Drive & Pershing",41.823957045263,-87.616927027702
2164,"King Drive & 38th Street",41.825723937761,-87.616980671883
2165,"King Drive & 37th Street",41.827646677135,-87.617012858391
2166,"3600 S King Drive",41.82919761817,-87.617081254721
2167,"King Drive & 35th Street",41.831475994329,-87.616927027702
2168,"King Drive & 33rd Place",41.833434533576,-87.616969943047
2169,"King Drive & 33rd Street",41.834957356352,-87.616991400719
2170,"King Drive & 32nd Street",41.836779899759,-87.617023587227
2171,"King Drive & 31st Street",41.83829964545,-87.617090642452
2178,"King Drive & 30th Street",41.839719440998,-87.617128193378
2179,"King Drive & 29th Street",41.842291179044,-87.61717915535
2180,"2800 S King Drive",41.843426147888,-87.617211341858
2181,"King Drive & 26th Street",41.845524188695,-87.61725962162
2185,"Cermak & Prairie",41.853020625694,-87.620505094528
2188,"Michigan & Madison",41.882366555435,-87.624174356461
2192,"McCormick Place",41.851118627834,-87.619008421898
2193,"King Drive & 25th Street",41.847310466357,-87.617720961571
2194,"King Drive & 26th Street",41.845476234245,-87.617683410645
2195,"2800 S King Drive",41.843378191866,-87.6176404953
2196,"King Drive & 29th Street",41.841903526623,-87.617608308792
2197,"3000 S King Drive",41.840236994102,-87.61756002903
2198,"King Drive & 31st Street",41.838562424904,-87.617522478104
2199,"King Drive & 32nd Street",41.836296291326,-87.617452740669
2201,"3400 S King Drive",41.832543205798,-87.617372274399
2202,"King Drive & 35th Street",41.830868435282,-87.617340087891
2203,"3600 S King Drive",41.829257576476,-87.617146968842
2204,"King Drive & 37th Street",41.827382853529,-87.617087960243
2205,"King Drive & 38th Street",41.825516070586,-87.617061138153
2206,"King Drive & Pershing",41.82365323078,-87.617002129555
2207,"King Drive & Oakwood Boulevard",41.822541897102,-87.616975307465
2208,"King Drive & 41st Street",41.820075307041,-87.616900205612
2209,"King Drive & 42nd Street",41.818276275442,-87.61690557003
2210,"King Drive & 43rd Street",41.816513175441,-87.616830468178
2211,"King Drive & 44th Street",41.814702049392,-87.616776823997
2212,"King Drive & 45th Street",41.812882875648,-87.616744637489
2213,"King Drive & 46th Street",41.811091638709,-87.616685628891
2214,"King Drive & 47th Street",41.809160405272,-87.616637349129
2215,"King Drive & 48th Street",41.80736906424,-87.616599798203
2216,"King Drive & 49th Street",41.805589669209,-87.616556882858
2217,"King Drive & 50th Street",41.803654271089,-87.616513967514
2218,"King Drive & 51st Street",41.801878771814,-87.616202831268
2219,"5200 S King Drive",41.800355162267,-87.616159915924
2220,"King Drive & 53rd Street",41.798259640095,-87.616100907326
2221,"King Drive & 54th Street",41.796455996487,-87.616047263145
2222,"King Drive & Garfield ",41.794936257369,-87.616015076637
2223,"King Drive & Garfield ",41.794236365394,-87.615988254547
2224,"King Drive & 56th Street",41.79276456762,-87.615956068039
2225,"King Drive & 57th Street",41.791024763079,-87.615923881531
2226,"King Drive & 58th Street",41.789180918681,-87.615913152695
2227,"King Drive & 59th Street",41.787413018069,-87.615832686424
2228,"King Drive & 60th Street",41.785805066128,-87.615768313408
2229,"King Drive & 61st Street",41.783729068533,-87.615752220154
2230,"King Drive & 62nd Street",41.781969017922,-87.615714669228
2231,"King Drive & 63rd Street",41.779956900882,-87.615650296211
2232,"King Drive & 64th Street",41.778132740215,-87.615607380867
2233,"King Drive & 65th Street",41.776460547355,-87.615634202957
2234,"King Drive & 66th Street",41.774668292247,-87.615585923195
2235,"King Drive & Marquette Rd",41.773140035162,-87.615532279015
2236,"King Drive & Marquette Rd/S. Chicago",41.772655946136,-87.615521550179
2237,"King Drive & Anthony",41.77055551755,-87.615451812744
2238,"King Drive & 69th Street",41.769491274148,-87.615414261818
2239,"King Drive & 70th Street",41.767622804114,-87.615339159966
2240,"King Drive & 71st Street",41.765614238162,-87.615296244621
2241,"King Drive & 72nd Street",41.763761660435,-87.615258693695
2242,"King Drive & 73rd Street",41.761957046251,-87.615215778351
2243,"King Drive & 74th Street",41.760168387436,-87.615151405334
2244,"King Drive & 75th Street",41.758219612917,-87.615140676498
